[
    
{"name":"ISLAND NGHBRHD GRMT FOO","address":"2909 SURF AVE, BROOKLYN, NY 11224","coor":{"lat":40.572836,"lng":-73.995373}},
{"name":"SEA SIDE DELI AND GROCE","address":"2925 SURF AVE, BROOKLYN, NY 11224","coor":{"lat":40.572857,"lng":-73.99516}},
{"name":"KASSIM FAMILY FOOD CENT","address":"2226 SURF AVE, BROOKLYN, NY 11224","coor":{"lat":40.574025,"lng":-73.989599}},
{"name":"CONY ISLAND FAIR MART","address":"2202 SURF AVE, BROOKLYN, NY 11224","coor":{"lat":40.574211,"lng":-73.988956}},
{"name":"EXPRESS DELI SUPERMKT","address":"2115 SURF AVE, BROOKLYN, NY 11224","coor":{"lat":40.574404,"lng":-73.988293}},
{"name":"MERMAID 2 DELI","address":"3222 MERMAID AVENUE, BROOKLYN, NY 11224","coor":{"lat":40.57503,"lng":-73.999198}},
{"name":"OCEANSIDE PHARMACY","address":"3206 MERMAID AVE, BROOKLYN, NY 11224","coor":{"lat":40.575072,"lng":-73.99882}},
{"name":"BEACH DELI","address":"3204 MERMAID AVE, BROOKLYN, NY 11224","coor":{"lat":40.575086,"lng":-73.998694}},
{"name":"99 CENTS STORE","address":"3210 MERMAID AVE, BROOKLYN, NY 11224","coor":{"lat":40.575091,"lng":-73.99865}},
{"name":"MEGA AID PHARMACY","address":"3112 MERMAID AVE, BROOKLYN, NY 11224","coor":{"lat":40.575173,"lng":-73.997879}},
{"name":"WASHINGTON CHERRY INC","address":"3024 MERMAID AVENUE, BROOKLYN, NY 11224","coor":{"lat":40.57525,"lng":-73.997152}},
{"name":"RITE AID PHARMACY 04257","address":"3001 27 MERMAID AVE, BROOKLYN, NY 11224","coor":{"lat":40.575271,"lng":-73.996955}},
{"name":"DEAL 99 CENTS","address":"3014 MERMAID AVE, BROOKLYN, NY 11224","coor":{"lat":40.575281,"lng":-73.99686}},
{"name":"FINE FARE","address":"2901 MERMAID AVE, BROOKLYN, NY 11224","coor":{"lat":40.575389,"lng":-73.995876}},
{"name":"BK KING 1","address":"2827 MERMAID AVE, BROOKLYN, NY 11224","coor":{"lat":40.575462,"lng":-73.995221}},
{"name":"FJP MEAT MARKET","address":"2823 MERMAID AVE, BROOKLYN, NY 11224","coor":{"lat":40.575481,"lng":-73.995064}},
{"name":"WILLIAMS CANDY SHOPPE","address":"1318 SURF AVE, BROOKLYN, NY 11224","coor":{"lat":40.575497,"lng":-73.981961}},
{"name":"ZAK MARKET","address":"2815 MERMAID AVE, BROOKLYN, NY 11224","coor":{"lat":40.575497,"lng":-73.994925}},
{"name":"CONEY DELI GROCERY","address":"2803 MERMAID AVE, BROOKLYN, NY 11224","coor":{"lat":40.575548,"lng":-73.994493}},
{"name":"YAFRANNY DELI","address":"2728 MERMAID AVE, BROOKLYN, NY 11224","coor":{"lat":40.575585,"lng":-73.994171}},
{"name":"DELI GROCERY & GRILL","address":"2706 MERMAID AVENUE, BROOKLYN, NY 11224","coor":{"lat":40.575635,"lng":-73.993717}},
{"name":"PLAZA FOOD CHOICE","address":"2715 MERMAID AVE, BROOKLYN, NY 11224","coor":{"lat":40.575635,"lng":-73.993715}},
{"name":"SUPERIOR MARKETS","address":"2428 MERMAID AVE, BROOKLYN, NY 11224","coor":{"lat":40.575825,"lng":-73.992021}},
{"name":"ROYAL SEAFOOD OF BBA","address":"3100 OCEAN PKWY, BROOKLYN, NY 11235","coor":{"lat":40.575845,"lng":-73.968921}},
{"name":"IN AND OUT DELI GRILL","address":"2328 MERMAID AVE, BROOKLYN, NY 11224","coor":{"lat":40.575935,"lng":-73.990985}},
{"name":"BIG SAM FOOD","address":"2327 MERMAID AVE, BROOKLYN, NY 11224","coor":{"lat":40.57594,"lng":-73.990948}},
{"name":"GREEN APPLE DELI","address":"2321 MERMAID AVE, BROOKLYN, NY 11224","coor":{"lat":40.575959,"lng":-73.990777}},
{"name":"MERMAID DELI","address":"2120 MERMAID AVE, BROOKLYN, NY 11224","coor":{"lat":40.576197,"lng":-73.988627}},
{"name":"BRIGHTON SUPER DEALS","address":"100 120 BRIGHTON BEACH AVE, BROOKLYN, NY 11235","coor":{"lat":40.576253,"lng":-73.96826}},
{"name":"CI FOOD MARKET","address":"2901 W 21ST ST, BROOKLYN, NY 11224","coor":{"lat":40.576268,"lng":-73.987948}},
{"name":"DJ DELI","address":"2808 WEST 36TH STREET, BROOKLYN, NY 11224","coor":{"lat":40.576272,"lng":-74.002028}},
{"name":"DUANE READE 14285","address":"101 105 BRIGHTON BEACH AVE, BROOKLYN, NY 11235","coor":{"lat":40.576311,"lng":-73.96824}},
{"name":"ROCCOS BAKERY&DELI","address":"117 BRIGHTON BEACH AV, BROOKLYN, NY 11235","coor":{"lat":40.576349,"lng":-73.967516}},
{"name":"JERUSALEM GROCERY 11/","address":"2002 MERMAID AVE, BROOKLYN, NY 11224","coor":{"lat":40.576371,"lng":-73.987045}},
{"name":"NEW BRIGHTON TRADING","address":"129 BRIGHTON BEACH AVE, BROOKLYN, NY 11235","coor":{"lat":40.576372,"lng":-73.967325}},
{"name":"IMPERIAL MEAT MARKET","address":"205 BRIGHTON BEACH AVE, BROOKLYN, NY 11235","coor":{"lat":40.576474,"lng":-73.966801}},
{"name":"EXTRA FANCY FARM","address":"224 BRIGHTON BEACH AVE, BROOKLYN, NY 11235","coor":{"lat":40.576525,"lng":-73.966117}},
{"name":"VANILLA FLOWER","address":"1724 MERMAID AVE, BROOKLYN, NY 11224","coor":{"lat":40.576535,"lng":-73.985538}},
{"name":"DEAL 99C","address":"217 BRIGHTON BEACH AVE, BROOKLYN, NY 11235","coor":{"lat":40.576537,"lng":-73.966519}},
{"name":"TASTE OF RUSSIA","address":"219 BRIGHTON BEACH AVE, BROOKLYN, NY 11235","coor":{"lat":40.576554,"lng":-73.96645}},
{"name":"1716 MERMAID AVE DELI&G","address":"1716 MERMAID AVE, BROOKLYN, NY 11224","coor":{"lat":40.576559,"lng":-73.985308}},
{"name":"RAJAH DELI","address":"2902 W 19 ST, BROOKLYN, NY 11224","coor":{"lat":40.576587,"lng":-73.985842}},
{"name":"BRIGHT PHARMACY & MEDIC","address":"227 BRIGHTON BEACH AVE, BROOKLYN, NY 11235","coor":{"lat":40.576605,"lng":-73.966186}},
{"name":"GUERRERO DELI GROCERY","address":"1627 MERMAID AVE, BROOKLYN, NY 11224","coor":{"lat":40.576642,"lng":-73.984565}},
{"name":"CENTRAL PHARMACY","address":"252 BRIGHTON BEACH AVE, BROOKLYN, NY 11235","coor":{"lat":40.576652,"lng":-73.965532}},
{"name":"MERMAID PRIME MEAT","address":"1621 MERMAID AVE, BROOKLYN, NY 11224","coor":{"lat":40.576664,"lng":-73.984381}},
{"name":"FIVE STARS DELI STORE I","address":"1614 MERMAID AVE, BROOKLYN, NY 11224","coor":{"lat":40.576685,"lng":-73.984214}},
{"name":"A&T GROCERY","address":"2906 2908 STILLWELL AVE, BROOKLYN, NY 11224","coor":{"lat":40.576742,"lng":-73.98152}},
{"name":"MERMAID FINEST","address":"1530 MERMAID AVE, BROOKLYN, NY 11224","coor":{"lat":40.576761,"lng":-73.983573}},
{"name":"FRUIT MERMAID","address":"1527 MERMAID AVE, BROOKLYN, NY 11224","coor":{"lat":40.576766,"lng":-73.983527}},
{"name":"7 & 7 GOURMET DELI","address":"2904 STILLWELL AVE, BROOKLYN, NY 11224","coor":{"lat":40.576775,"lng":-73.981531}},
{"name":"MERMAID SUPERIOR DELI","address":"1526 MERMAID AVE, BROOKLYN, NY 11224","coor":{"lat":40.576777,"lng":-73.983427}},
{"name":"BBA TOP PRODUCE","address":"259 BRIGHTON BEACH AVE, BROOKLYN, NY 11235","coor":{"lat":40.576802,"lng":-73.965222}},
{"name":"274 BRIGHTON BEACH DRUG","address":"274 BRIGHTON BEACH AVE, BROOKLYN, NY 11235","coor":{"lat":40.576822,"lng":-73.96481}},
{"name":"PHARMACY EXPRESS","address":"274 BRIGHTON BEACH AVE, BROOKLYN, NY 11235","coor":{"lat":40.576822,"lng":-73.96481}},
{"name":"PAMPUSHKA","address":"3089 BRIGHTON 3RD ST, BROOKLYN, NY 11235","coor":{"lat":40.576865,"lng":-73.964137}},
{"name":"URBAN FARE","address":"1424 MERMAID AVE, BROOKLYN, NY 11224","coor":{"lat":40.576906,"lng":-73.982249}},
{"name":"BRIGHTON FOOD GROUP","address":"281 285 BRIGHTON BEACH AVENUE, BROOKLYN, NY 11235","coor":{"lat":40.576939,"lng":-73.964591}},
{"name":"MERIT FOOD","address":"287 BRIGHTON BEACH AVE, BROOKLYN, NY 11235","coor":{"lat":40.576966,"lng":-73.964468}},
{"name":"BRIGHTON FINEST GOURMET","address":"291 BRIGHTON BEACH AVE, BROOKLYN, NY 11235","coor":{"lat":40.576996,"lng":-73.96433}},
{"name":"BRIGHTON BEACH GROCERY","address":"324A BRIGHTON BEACH AVE, BROOKLYN, NY 11235","coor":{"lat":40.577013,"lng":-73.963951}},
{"name":"ALEX DELI","address":"324A BRIGHTON BEACH AVE, BROOKLYN, NY 11235","coor":{"lat":40.577013,"lng":-73.963951}},
{"name":"OCTOBERFEST","address":"3087 BRIGHTON 4TH ST, BROOKLYN, NY 11235","coor":{"lat":40.577015,"lng":-73.963222}},
{"name":"KEY FOOD","address":"3485 NEPTUNE AVE, BROOKLYN, NY 11224","coor":{"lat":40.577041,"lng":-74.001928}},
{"name":"EUROPE THE","address":"307 BRIGHTON BEACH AVE, BROOKLYN, NY 11235","coor":{"lat":40.577101,"lng":-73.963842}},
{"name":"A & S FISHMARKET","address":"309 BRIGHTON BEACH AVE, BROOKLYN, NY 11235","coor":{"lat":40.577117,"lng":-73.963773}},
{"name":"SAN JOSE DISCOUNT","address":"3365 NEPTUNE AVE, BROOKLYN, NY 11224","coor":{"lat":40.577117,"lng":-74.001248}},
{"name":"BAY PARK PHARMACY","address":"3355 NEPTUNE AVE, BROOKLYN, NY 11224","coor":{"lat":40.577118,"lng":-74.00124}},
{"name":"PHARMACY DEPOT","address":"317 BRIGHTON BEACH AVE, BROOKLYN, NY 11235","coor":{"lat":40.577165,"lng":-73.963558}},
{"name":"IDREES BAGEL STORE","address":"185 WEST END AVE, BROOKLYN, NY 11235","coor":{"lat":40.577263,"lng":-73.952964}},
{"name":"EXQUISITE FOOD LAND","address":"409 413 BRIGHTON BEACH AVE, BROOKLYN, NY 11235","coor":{"lat":40.577297,"lng":-73.962939}},
{"name":"ERICS HEALTH FOOD SHPPE","address":"508 BRIGHTON BEACH AVE, BROOKLYN, NY 11235","coor":{"lat":40.577359,"lng":-73.962274}},
{"name":"BRIGHTON FRUIT MARKET","address":"421 BRIGHTON BEACH AVE, BROOKLYN, NY 11235","coor":{"lat":40.577378,"lng":-73.962543}},
{"name":"MILLENIUM DELI&GROCERY","address":"3038 NEPTUNE AVE, BROOKLYN, NY 11224","coor":{"lat":40.577484,"lng":-73.997745}},
{"name":"BRIGHTON 99C PLUS STORE","address":"509 BRIGHTON BEACH AVE, BROOKLYN, NY 11235","coor":{"lat":40.577489,"lng":-73.962029}},
{"name":"STOP 1 MONEY MARKET","address":"513 BRIGHTON BEACH AVE, BROOKLYN, NY 11235","coor":{"lat":40.57752,"lng":-73.961891}},
{"name":"MNL DEVELOPMENT","address":"3070 BRIGHTON 4TH ST, BROOKLYN, NY 11235","coor":{"lat":40.577554,"lng":-73.963407}},
{"name":"CORNER GROCERY","address":"1151 BRIGHTON BEACH AVE, BROOKLYN, NY 11235","coor":{"lat":40.577597,"lng":-73.9554}},
{"name":"STOP 1 FOOD MARKET","address":"606 BRIGHTON BEACH AVE, BROOKLYN, NY 11235","coor":{"lat":40.577598,"lng":-73.961199}},
{"name":"GNC 9093","address":"608 BRIGHTON BEACH AVENUE, BROOKLYN, NY 11235","coor":{"lat":40.577611,"lng":-73.961138}},
{"name":"KINGS MEAT MARKET","address":"601 BRIGHTON BEACH AVE, BROOKLYN, NY 11235","coor":{"lat":40.577642,"lng":-73.961334}},
{"name":"KINGS MEAT MARKETS","address":"603 605 BRIGHTON BEACH AVE, BROOKLYN, NY 11235","coor":{"lat":40.577656,"lng":-73.961264}},
{"name":"TWINS ZERO","address":"1137 BRIGHTON BEACH AVE, BROOKLYN, NY 11235","coor":{"lat":40.577678,"lng":-73.955678}},
{"name":"1133 SEABREEZE DELI","address":"1133 BRIGHTON BEACH AVE, BROOKLYN, NY 11235","coor":{"lat":40.577712,"lng":-73.955792}},
{"name":"BRIGHTON'S BEST DELI","address":"1133 BRIGHTON BEACH AVE, BROOKLYN, NY 11235","coor":{"lat":40.577712,"lng":-73.955792}},
{"name":"7 ELEVEN STORE #36950A","address":"708 BRIGHTON BEACH AVE, BROOKLYN, NY 11235","coor":{"lat":40.577737,"lng":-73.960539}},
{"name":"SEA BREEZE PHARMACY & M","address":"1129 BRIGHTON BEACH AVE, BROOKLYN, NY 11235","coor":{"lat":40.577748,"lng":-73.955907}},
{"name":"SUPER DISCOUNT 88","address":"1113 1123 BRIGHTON BEACH AVE, BROOKLYN, NY 11223","coor":{"lat":40.577858,"lng":-73.956265}},
{"name":"1113 SUPER DISCOUNT 8","address":"1113 BRIGHTON BEACH AVE, BROOKLYN, NY 11235","coor":{"lat":40.577858,"lng":-73.956265}},
{"name":"Y7M GROCERY & DELI","address":"1111 BRIGHTON BEACH AVE, BROOKLYN, NY 11235","coor":{"lat":40.577889,"lng":-73.956365}},
{"name":"OURIS FRUIT","address":"1105 BRIGHTON BEACH AVE, BROOKLYN, NY 11235","coor":{"lat":40.57795,"lng":-73.956561}},
{"name":"TASHKENT SUPERMARKET","address":"713 BRIGHTON BEACH AVE, BROOKLYN, NY 11235","coor":{"lat":40.577953,"lng":-73.959881}},
{"name":"WALGREENS #10326","address":"713 BRIGHTON BEACH AVE, BROOKLYN, NY 11235","coor":{"lat":40.577953,"lng":-73.959881}},
{"name":"MV QUICK FOOD CORP","address":"2875 W 8TH ST, BROOKLYN, NY 11224","coor":{"lat":40.577981,"lng":-73.976313}},
{"name":"BROOKLYN EATS","address":"2001 ORIENTAL BLVD, BROOKLYN, NY 11235","coor":{"lat":40.578095,"lng":-73.933153}},
{"name":"PAPA KARLO FRESH MARKET","address":"1081 BRIGHTON BEACH AVE, BROOKLYN, NY 11235","coor":{"lat":40.578148,"lng":-73.957201}},
{"name":"BRIGHTON BAZAAR","address":"1007 BRIGHTON BEACH AVE, BROOKLYN, NY 11235","coor":{"lat":40.578152,"lng":-73.95905}},
{"name":"ARKING OF BROOKLYN","address":"1079 BRIGHTON BEACH AVE, BROOKLYN, NY 11235","coor":{"lat":40.578158,"lng":-73.957234}},
{"name":"H&A INTERNATIONAL FRUIT","address":"1023 BRIGHTON BEACH AVE, BROOKLYN, NY 11235","coor":{"lat":40.578175,"lng":-73.95895}},
{"name":"FANCY BAKERY","address":"1077 BRIGHTON BEACH AVE, BROOKLYN, NY 11235","coor":{"lat":40.578188,"lng":-73.957333}},
{"name":"GOLDEN KEY","address":"1067 BRIGHTON BEACH AVE, BROOKLYN, NY 11235","coor":{"lat":40.578252,"lng":-73.957571}},
{"name":"GOURMANOFF","address":"1029 BRIGHTON BEACH AVE, BROOKLYN, NY 11235","coor":{"lat":40.578253,"lng":-73.9585}},
{"name":"L&L FARMERS MARKET 1","address":"1055 BRIGTON BEACH AVE, BROOKLYN, NY 11235","coor":{"lat":40.578301,"lng":-73.957841}},
{"name":"DOLLAR TREE #5072","address":"2847 W 8TH ST, BROOKLYN, NY 11224","coor":{"lat":40.578404,"lng":-73.976277}},
{"name":"NEW YORK BREAD","address":"2201 NEPTUNE AVE, BROOKLYN, NY 11224","coor":{"lat":40.578438,"lng":-73.989727}},
{"name":"BRIGHTONS CONVENIENCE","address":"3165 CONEY ISLAND AVE, BROOKLYN, NY 11235","coor":{"lat":40.578849,"lng":-73.959704}},
{"name":"KINGS NEPTUNE MOBIL","address":"1702 NEPTUNE AVE, BROOKLYN, NY 11224","coor":{"lat":40.578888,"lng":-73.985531}},
{"name":"NET COST MARKET","address":"608 SHEEPSHEAD BAY RD, BROOKLYN, NY 11224","coor":{"lat":40.578902,"lng":-73.974862}},
{"name":"SPEEDWAY #07829","address":"1620 NEPTUNE AVE, BROOKLYN, NY 11224","coor":{"lat":40.578982,"lng":-73.984742}},
{"name":"NEPTUNE DELI GROCERY","address":"1502 NEPTUNE AVE, BROOKLYN, NY 11224","coor":{"lat":40.579147,"lng":-73.983269}},
{"name":"IDREES MINI MART","address":"97 W END AVE, BROOKLYN, NY 11235, ","coor":{"lat":40.579304,"lng":-73.95336}},
{"name":"NEPTUNE FOOD","address":"1204 NEPTUNE AVE, BROOKLYN, NY 11224","coor":{"lat":40.579338,"lng":-73.980512}},
{"name":"CVS/PHARMACY #2428","address":"532 NEPTUNE AVE, BROOKLYN, NY 11224","coor":{"lat":40.579885,"lng":-73.97408}},
{"name":"KEY FOOD 1280","address":"505 NEPTUNE AVE, BROOKLYN, NY 11224","coor":{"lat":40.579885,"lng":-73.972451}},
{"name":"BELARUS","address":"495 NEPTUNE AVE, BROOKLYN, NY 11224","coor":{"lat":40.579886,"lng":-73.972456}},
{"name":"S&K WARBASSE PHARMACY","address":"499 NEPTUNE AVE, BROOKLYN, NY 11224","coor":{"lat":40.57993,"lng":-73.973208}},
{"name":"LIVE TO EAT","address":"2769 W 15TH ST, BROOKLYN, NY 11224","coor":{"lat":40.580015,"lng":-73.983256}},
{"name":"BRIGHTON FAMILY GROCERY","address":"105 BRIGHTON 11TH ST, BROOKLYN, NY 11235","coor":{"lat":40.580135,"lng":-73.957595}},
{"name":"OCEAN BROTHERS DELI&GRI","address":"392 NEPTUNE AVE, BROOKLYN, NY 11235","coor":{"lat":40.580446,"lng":-73.967054}},
{"name":"S&K PHARMACY","address":"373 NEPTUNE AVE, BROOKLYN, NY 11235","coor":{"lat":40.580546,"lng":-73.966598}},
{"name":"ZEE DELI&GRILL","address":"373 NEPTUNE AVE, BROOKLYN, NY 11235","coor":{"lat":40.580546,"lng":-73.966598}},
{"name":"DISCOS AZTECA","address":"3094 CONEY ISLAND AVE, BROOKLYN, NY 11235","coor":{"lat":40.580628,"lng":-73.95984}},
{"name":"B&B MINI MARKET","address":"311 313 NEPTUNE AVE, BROOKLYN, NY 11235","coor":{"lat":40.580955,"lng":-73.964671}},
{"name":"BAYAN KO","address":"308 NEPTUNE AVE, BROOKLYN, NY 11235","coor":{"lat":40.581024,"lng":-73.964351}},
{"name":"3 STAR GROCERY","address":"3078 CONEY ISLAND AVE, BROOKLYN, NY 11235","coor":{"lat":40.581103,"lng":-73.959877}},
{"name":"R&M GROCERY","address":"285 NEPTUNE AVE, BROOKLYN, NY 11235","coor":{"lat":40.581138,"lng":-73.963822}},
{"name":"OLINKA MEAT MARKET","address":"273 NEPTUNE AVENUE, BROOKLYN, NY 11235","coor":{"lat":40.581221,"lng":-73.963423}},
{"name":"EXPRESS DELI GROCERY","address":"262 NEPTUNE AVE, BROOKLYN, NY 11235","coor":{"lat":40.58131,"lng":-73.962984}},
{"name":"NEW EASTERN II FRT&VGTB","address":"231 NEPTUNE AVE, BROOKLYN, NY 11235","coor":{"lat":40.581487,"lng":-73.962155}},
{"name":"NEPTUNE DISCOUNT","address":"223 NEPTUNE AVE, BROOKLYN, NY 11235","coor":{"lat":40.58162,"lng":-73.96154}},
{"name":"BRIGHTON DELI & GROCERY","address":"219 NEPTUNE AVE, BROOKLYN, NY 11235","coor":{"lat":40.581637,"lng":-73.961465}},
{"name":"BRIGHTON HALAL MEAT MAR","address":"217 NEPTUNE AVE, BROOKLYN, NY 11235","coor":{"lat":40.581652,"lng":-73.961395}},
{"name":"SUPER HALAL MEAT","address":"217 NEPTUNE AVE, BROOKLYN, NY 11235","coor":{"lat":40.581652,"lng":-73.961395}},
{"name":"AROMA FOOD","address":"3033 CONEY ISLAND AVENUE, BROOKLYN, NY 11235","coor":{"lat":40.581713,"lng":-73.959922}},
{"name":"HAS MARKET","address":"201 NEPTUNE AVE, BROOKLYN, NY 11235","coor":{"lat":40.581781,"lng":-73.960783}},
{"name":"SEDEF BAKERY","address":"201 NEPTUNE AVE, BROOKLYN, NY 11235","coor":{"lat":40.581781,"lng":-73.960783}},
{"name":"EL JAROCHITO DELI & GRO","address":"195 NEPTUNE AVE, BROOKLYN, NY 11235","coor":{"lat":40.581809,"lng":-73.960647}},
{"name":"PERALTAS GROCERY","address":"144 NEPTUNE AVE, BROOKLYN, NY 11235","coor":{"lat":40.582202,"lng":-73.958787}},
{"name":"STOP & SHOP #2591","address":"2965 CROPSEY AVE, BROOKLYN, NY 11214","coor":{"lat":40.582542,"lng":-73.986097}},
{"name":"KINGS 3003 C STORE","address":"3003 CONEY ISLAND AVE, BROOKLYN, NY 11235","coor":{"lat":40.582756,"lng":-73.959999}},
{"name":"CITGO","address":"2955 CROPSEY AVE, BROOKLYN, NY 11214","coor":{"lat":40.582776,"lng":-73.986171}},
{"name":"SHOP&SMILE GROCERIES","address":"51 NEPTUNE AVE, BROOKLYN, NY 11235","coor":{"lat":40.582875,"lng":-73.955578}},
{"name":"EMMONS DELI","address":"1729 EMMONS AVE, BROOKLYN, NY 11235","coor":{"lat":40.583466,"lng":-73.950673}},
{"name":"CHERRY HILL GOURMET","address":"1901 EMMONS AVE, BROOKLYN, NY 11235","coor":{"lat":40.583652,"lng":-73.94901}},
{"name":"BEST EMMONS BAGEL","address":"2253 EMMONS AVE, BROOKLYN, NY 11235","coor":{"lat":40.583737,"lng":-73.94472}},
{"name":"SHOREWAY CONVENIENCE","address":"3043 EMMONS AVE, BROOKLYN, NY 11235","coor":{"lat":40.584007,"lng":-73.93735}},
{"name":"BAY SIDE MINI MART","address":"3119 EMMONS AVE, BROOKLYN, NY 11235","coor":{"lat":40.584105,"lng":-73.9348}},
{"name":"JIMMYS FAMOUS HEROS","address":"1786 SHEEPSHEAD BAY RD, BROOKLYN, NY 11235","coor":{"lat":40.584137,"lng":-73.950778}},
{"name":"INDREES DELI ON THE BAY","address":"3191 EMMONS AVE, BROOKLYN, NY 11235","coor":{"lat":40.584209,"lng":-73.932721}},
{"name":"LUDAS DUMPLINGS","address":"3371 SHORE PARKWAY, BROOKLYN, NY 11235","coor":{"lat":40.584885,"lng":-73.95098}},
{"name":"EDIBLE ARRANGEMENTS","address":"1736 SHEEPSHEAD BAY RD, BROOKLYN, NY 11235","coor":{"lat":40.585155,"lng":-73.951384}},
{"name":"NET COST MARKET","address":"3100 OCEAN AVE, BROOKLYN, NY 11235","coor":{"lat":40.58532,"lng":-73.948751}},
{"name":"MILINNAS HOMEMADE FOOD","address":"2914 CONEY ISLAND AVE, BROOKLYN, NY 11235","coor":{"lat":40.585375,"lng":-73.960461}},
{"name":"PRIVILEGE BAKERY","address":"2914 CONEY ISLAND AVE, BROOKLYN, NY 11235","coor":{"lat":40.585375,"lng":-73.960461}},
{"name":"OCTOBERFEST","address":"1743 SHEEPSHEADBAY RD, BROOKLYN, NY 11235","coor":{"lat":40.585389,"lng":-73.951519}},
{"name":"DUANE READE 14219","address":"3090 OCEAN AVE, BROOKLYN, NY 11235","coor":{"lat":40.585675,"lng":-73.948818}},
{"name":"GENERAL NUTRITION 9445","address":"1712 SHEEPSHEAD BAY RD, BROOKLYN, NY 11235","coor":{"lat":40.585695,"lng":-73.951719}},
{"name":"S&I BUSINESS","address":"2691 E 14TH ST, BROOKLYN, NY 11235","coor":{"lat":40.585758,"lng":-73.954873}},
{"name":"CORNER CANDY & GROCERY","address":"2827 CROPSEY AVENUE, BROOKLYN, NY 11214","coor":{"lat":40.585787,"lng":-73.987741}},
{"name":"SUNSHINE PHARMACY","address":"1622 VOORHIES AVE, BROOKLYN, NY 11235","coor":{"lat":40.585861,"lng":-73.952603}},
{"name":"KEY FOOD 1588","address":"599 AVENUE, BROOKLYN, NY 11223","coor":{"lat":40.586052,"lng":-73.971741}},
{"name":"2819 CROPSEY BAGELS & D","address":"2819 CROPSEY AVE, BROOKLYN, NY 11214","coor":{"lat":40.586099,"lng":-73.987987}},
{"name":"BEST BUY BAGELS","address":"2809 CROPSEY AVENUE, BROOKLYN, NY 11214","coor":{"lat":40.586209,"lng":-73.988072}},
{"name":"JORDANS LOBSTER DOCK","address":"3165 HARKNESS AVE, BROOKLYN, NY 11235","coor":{"lat":40.586543,"lng":-73.929277}},
{"name":"KNAPP STREET BAGELS","address":"2771 KNAPP, BROOKLYN, NY 11235","coor":{"lat":40.586585,"lng":-73.931443}},
{"name":"VOORHIES HEALTH PHARMAC","address":"2309 VOORHIES AVE, BROOKLYN, NY 11235","coor":{"lat":40.586628,"lng":-73.945493}},
{"name":"GOLDEN GROCERY","address":"2317 VOORHIES AVE, BROOKLYN, NY 11235","coor":{"lat":40.586651,"lng":-73.945312}},
{"name":"BEERLAND","address":"2568 WEST 2ND STREET, BROOKLYN, NY 11223","coor":{"lat":40.58675,"lng":-73.971405}},
{"name":"1624 FRUIT GARDEN DELI","address":"1624 SHEEPSHEAD BAY RD, BROOKLYN, NY 11235","coor":{"lat":40.586902,"lng":-73.952624}},
{"name":"FORCES OF NATURE HEALTH","address":"1614 SHEEPSHEAD BAY RD, BROOKLYN, NY 11235","coor":{"lat":40.586971,"lng":-73.952682}},
{"name":"Z AMAZING DEALS","address":"2845 CONEY ISLAND AVE, BROOKLYN, NY 11235","coor":{"lat":40.587073,"lng":-73.960277}},
{"name":"FORCES OF NATURE","address":"1608 SHEEPSHEAD BAY RD, BROOKLYN, NY 11235","coor":{"lat":40.587085,"lng":-73.952799}},
{"name":"F&F SMOKE SHOP","address":"1502 SHEEPSHEAD BAY RD, BROOKLYN, NY 11235","coor":{"lat":40.587219,"lng":-73.953466}},
{"name":"PORTOKALI GOURMET","address":"1509 SHEEPSHEAD BAY ROAD, BROOKLYN, NY 11235","coor":{"lat":40.587258,"lng":-73.953718}},
{"name":"GOLDEN GOURMET","address":"1501 A SHEEPSHEAD BAY RD, BROOKLYN, NY 11235","coor":{"lat":40.587292,"lng":-73.95391}},
{"name":"BROOKLYN BREAD HOUSE","address":"1718 JEROME AVE, BROOKLYN, NY 11235","coor":{"lat":40.587406,"lng":-73.951753}},
{"name":"ROBERT MEAT MARKET","address":"1726 JEROME AVE, BROOKLYN, NY 11235","coor":{"lat":40.58744,"lng":-73.951621}},
{"name":"EVE PHARMACY","address":"2836 CONEY ISLAND AVE, BROOKLYN, NY 11235","coor":{"lat":40.587447,"lng":-73.960414}},
{"name":"PONCHO'S GOURMET DELI &","address":"1424 SHEEPSHED BAY ROAD, BROOKLYN, NY 11235","coor":{"lat":40.587459,"lng":-73.954464}},
{"name":"24 MINI MARKET FLOWER","address":"2835 CONEY ISLAND AVE, BROOKLYN, NY 11235","coor":{"lat":40.587474,"lng":-73.960307}},
{"name":"OASIS MEGA MARKET","address":"2828 CONEY ISLAND AVE, BROOKLYN, NY 11235","coor":{"lat":40.5875,"lng":-73.960419}},
{"name":"CVS PHARMACY 02700","address":"1402 SHEEPSHEAD BAY RD, BROOKLYN, NY 11235","coor":{"lat":40.587512,"lng":-73.954652}},
{"name":"MILK FARM GROCERY&DELI","address":"2865 HARWAY AVE, BROOKLYN, NY 11214","coor":{"lat":40.587596,"lng":-73.984015}},
{"name":"DELI & GROCERY","address":"2829 CONEY ISLAND AVE, BROOKLYN, NY 11235","coor":{"lat":40.587599,"lng":-73.960317}},
{"name":"BAY STOP FRUIT & VEGETA","address":"2608 E 14TH ST, BROOKLYN, NY 11235","coor":{"lat":40.587678,"lng":-73.955235}},
{"name":"BAGEL BOY","address":"2601 E 16TH ST, BROOKLYN, NY 11235","coor":{"lat":40.587824,"lng":-73.953378}},
{"name":"PEARL'S HEALTH AND FOOD","address":"2727 CROPSEY AVE, BROOKLYN, NY 11214","coor":{"lat":40.587854,"lng":-73.9894}},
{"name":"A & Z CONVENIENT","address":"2727 CROPSEY AVE, BROOKLYN, NY 11214","coor":{"lat":40.587854,"lng":-73.9894}},
{"name":"7-ELEVEN STORE 26601D","address":"2702 KNAPP ST, BROOKLYN, NY 11235","coor":{"lat":40.587906,"lng":-73.931793}},
{"name":"P & P CONVENIENCE","address":"2436 STILLWELL AVE, BROOKLYN, NY 11223","coor":{"lat":40.587956,"lng":-73.983597}},
{"name":"7-ELEVEN FD STR 27167A","address":"2806 CONEY ISLAND AVE, BROOKLYN, NY 11235","coor":{"lat":40.588194,"lng":-73.960475}},
{"name":"RITE AIDE 10586","address":"2981 OCEAN AVE, BROOKLYN, NY 11235","coor":{"lat":40.588279,"lng":-73.949313}},
{"name":"BARRON GROCERY STORE","address":"9 BAY 50TH ST, BROOKLYN, NY 11214, ","coor":{"lat":40.588367,"lng":-73.983996}},
{"name":"ALLOS SUPERETTE","address":"3901 NOSTRAND AVE, BROOKLYN, NY 11235","coor":{"lat":40.58846,"lng":-73.93954}},
{"name":"I&D GLATT MEAT&POULTRY","address":"482 AVENUE, BROOKLYN, NY 11223","coor":{"lat":40.588611,"lng":-73.968155}},
{"name":"JO JO GOODS","address":"510 AVENUE, BROOKLYN, NY 11223","coor":{"lat":40.58872,"lng":-73.96705}},
{"name":"MARIAS BEAUTIFUL ARRANG","address":"2402 STILLWELL AVE, BROOKLYN, NY 11223","coor":{"lat":40.588727,"lng":-73.983744}},
{"name":"AMAZING DISCOUNTS 2009","address":"2209 AVENUE, BROOKLYN, NY 11235","coor":{"lat":40.58877,"lng":-73.947033}},
{"name":"OCEAN AVENUE DELI & BAG","address":"2970 OCEAN AVE, BROOKLYN, NY 11235","coor":{"lat":40.588777,"lng":-73.949408}},
{"name":"MIMINO INTERNATIONAL","address":"2969 OCEAN AVE, BROOKLYN, NY 11235","coor":{"lat":40.588897,"lng":-73.949431}},
{"name":"SHABAD DELI & GROCERY","address":"2387 STILLWELL AVE, BROOKLYN, NY 11223","coor":{"lat":40.58926,"lng":-73.983842}},
{"name":"ALMADINAH HALAL MARKET","address":"2705 AVENUE, BROOKLYN, NY 11235","coor":{"lat":40.589273,"lng":-73.942414}},
{"name":"SHAN MARKET","address":"2616 2620 CROPSEY AVE, BROOKLYN, NY 11214","coor":{"lat":40.58993,"lng":-73.991253}},
{"name":"TAP BEER","address":"1416 AVENUE, BROOKLYN, NY 11235","coor":{"lat":40.59004,"lng":-73.95508}},
{"name":"BEACH DELI INC","address":"2876 GERRITSEN AVE, BROOKLYN, NY 11229","coor":{"lat":40.590176,"lng":-73.92226}},
{"name":"SILVER STAR FARMS","address":"3838 NOSTRAND AVENUE, BROOKLYN, NY 11235","coor":{"lat":40.590272,"lng":-73.939991}},
{"name":"AVENUE U BAGELS 11/19","address":"284 AVENUE, BROOKLYN, NY 11223","coor":{"lat":40.590275,"lng":-73.972617}},
{"name":"F S CONVENIENCE","address":"291 AVENUE, BROOKLYN, NY 11223","coor":{"lat":40.590341,"lng":-73.972072}},
{"name":"2965 GAS","address":"2965 86TH ST, BROOKLYN, NY 11223","coor":{"lat":40.590352,"lng":-73.974661}},
{"name":"KOVCHEG INTERNATIONAL F","address":"2899 OCEAN AVE, BROOKLYN, NY 11235","coor":{"lat":40.590506,"lng":-73.949738}},
{"name":"RITE AID PHARMACY 04876","address":"3823 NOSTRAND AVE, BROOKLYN, NY 11235","coor":{"lat":40.590612,"lng":-73.939944}},
{"name":"GOLDEN KOLOS","address":"371 AVENUE, BROOKLYN, NY 11223","coor":{"lat":40.59067,"lng":-73.969085}},
{"name":"ATLAS MEAT","address":"387 AVE, BROOKLYN, NY 11223","coor":{"lat":40.590715,"lng":-73.968682}},
{"name":"S&W GROCERY","address":"2301 2303 STILLWELL AVE, BROOKLYN, NY 11223","coor":{"lat":40.590744,"lng":-73.984119}},
{"name":"CHOES SUPERETTE","address":"401 AVENUE, BROOKLYN, NY 11223","coor":{"lat":40.59077,"lng":-73.96802}},
{"name":"STAR DELI AND GRILL","address":"397 AVENUE, BROOKLYN, NY 11223","coor":{"lat":40.590779,"lng":-73.968092}},
{"name":"RAYA DELI & GROCERY","address":"397 AVENUE, BROOKLYN, NY 11223","coor":{"lat":40.590779,"lng":-73.968092}},
{"name":"LUCKY 3 DELI","address":"2124 AVENUE, BROOKLYN, NY 11235","coor":{"lat":40.590833,"lng":-73.947937}},
{"name":"CHIFFONS KOSHER CAKE CT","address":"430 AVENUE, BROOKLYN, NY 11223","coor":{"lat":40.59088,"lng":-73.96695}},
{"name":"KIEV BAKERY","address":"2666 CONEY ISLAND AVE, BROOKLYN, NY 11223","coor":{"lat":40.591665,"lng":-73.960747}},
{"name":"ALDI 9","address":"3785 NOSTRAND AVE, BROOKLYN, NY 11235","coor":{"lat":40.591687,"lng":-73.940145}},
{"name":"ANS DELI&GROCERY NEWSST","address":"2668 CONEY ISLAND AVE, BROOKLYN, NY 11223","coor":{"lat":40.591722,"lng":-73.960751}},
{"name":"7 ELEVEN STORE # 32126J","address":"3768 NOSTRAND AVE, BROOKLYN, NY 11235","coor":{"lat":40.5919,"lng":-73.940303}},
{"name":"CARE FAST PHARMACY","address":"3771 NOSTRAND AVE, BROOKLYN, NY 11235","coor":{"lat":40.591932,"lng":-73.940195}},
{"name":"NUCCIOS BAKERY","address":"2455 MCDONALD, BROOKLYN, NY 11223","coor":{"lat":40.591951,"lng":-73.973939}},
{"name":"H&I GROCERY","address":"2847 86TH ST, BROOKLYN, NY 11223","coor":{"lat":40.592119,"lng":-73.977595}},
{"name":"MARLBORO DELI & GRILL","address":"2835 86TH ST, BROOKLYN, NY 11223","coor":{"lat":40.592421,"lng":-73.978095}},
{"name":"SHEEPSHD BAY FR&VEG MKT","address":"1717 AVENUE, BROOKLYN, NY 11235","coor":{"lat":40.59246,"lng":-73.95261}},
{"name":"SAMS DELI","address":"288 AVENUE, BROOKLYN, NY 11223","coor":{"lat":40.592465,"lng":-73.972431}},
{"name":"BOUTIQUE BUTCHER","address":"311 AVENUE, BROOKLYN, NY 11223","coor":{"lat":40.592553,"lng":-73.971676}},
{"name":"AVENUE Y DELI & GROCERY","address":"1906 AVENUE, BROOKLYN, NY 11235","coor":{"lat":40.59264,"lng":-73.95104}},
{"name":"KINGS CONEY BP","address":"2624 CONEY ISLAND AVE, BROOKLYN, NY 11223","coor":{"lat":40.592646,"lng":-73.960827}},
{"name":"BIONIC BAGEL","address":"3741 NOSTRAND AVE, BROOKLYN, NY 11235","coor":{"lat":40.592664,"lng":-73.940336}},
{"name":"HEALTH CHOICE PHARMACY","address":"3735 NOSTRAND AVE, BROOKLYN, NY 11235","coor":{"lat":40.592798,"lng":-73.940361}},
{"name":"F&G SUPERMARKET","address":"2807 86TH ST, BROOKLYN, NY 11223","coor":{"lat":40.592859,"lng":-73.978812}},
{"name":"AH & F GROCERY","address":"2811 OCEAN AVE, BROOKLYN, NY 11229","coor":{"lat":40.592869,"lng":-73.950181}},
{"name":"PHILS MINI MARKET","address":"2601 BATH AVE, BROOKLYN, NY 11214","coor":{"lat":40.592869,"lng":-73.988503}},
{"name":"PRESTIGE MEAT MARKET","address":"3715 NOSTRAND AVE, BROOKLYN, NY 11235","coor":{"lat":40.592952,"lng":-73.94039}},
{"name":"AKIVA GROCERY","address":"409 AVENUE, BROOKLYN, NY 11223","coor":{"lat":40.593032,"lng":-73.967272}},
{"name":"GERRITSEN PLACE BAGELS","address":"2712 GERRITSEN AVE, BROOKLYN, NY 11229","coor":{"lat":40.593044,"lng":-73.925463}},
{"name":"OCEAN A & R PHARMACY","address":"2806 OCEAN AVE, BROOKLYN, NY 11229","coor":{"lat":40.59305,"lng":-73.950215}},
{"name":"STRADIVA GOURMET","address":"2425 MCDONALD AVE, BROOKLYN, NY 11223","coor":{"lat":40.593055,"lng":-73.973784}},
{"name":"STRADIVA SEAFOOD GOURME","address":"2425 MCDONALD AVE, BROOKLYN, NY 11223","coor":{"lat":40.593055,"lng":-73.973784}},
{"name":"FOOD CORP","address":"2793B 86TH STREET, BROOKLYN, NY 11223","coor":{"lat":40.593152,"lng":-73.979307}},
{"name":"470 AVE P","address":"470 AVE, BROOKLYN, NY 11223","coor":{"lat":40.593154,"lng":-73.966165}},
{"name":"WALGREENS #10441","address":"2590 CONEY ISLAND AVE, BROOKLYN, NY 11223","coor":{"lat":40.593178,"lng":-73.960871}},
{"name":"AMISH HONEY","address":"2605 CONEY ISLAND AVE, BROOKLYN, NY 11223","coor":{"lat":40.593227,"lng":-73.96074}},
{"name":"2789 FOOD","address":"2789 86TH ST, BROOKLYN, NY 11223","coor":{"lat":40.59326,"lng":-73.979483}},
{"name":"BJS WHOLESALE CLUB #195","address":"1752 SHORE PKWY, BROOKLYN, NY 11214","coor":{"lat":40.593321,"lng":-73.996544}},
{"name":"FAMILY DOLLAR #8829","address":"3710 NOSTRAND AVE, BROOKLYN, NY 11235","coor":{"lat":40.593357,"lng":-73.940573}},
{"name":"A&B BUSINESS","address":"2781 86TH STREET, BROOKLYN, NY 11223","coor":{"lat":40.593409,"lng":-73.979725}},
{"name":"ZEE GROCERY MART","address":"2620 AVENUE, BROOKLYN, NY 11235","coor":{"lat":40.593463,"lng":-73.943702}},
{"name":"CHALOUH ON U","address":"728 AVENUE, BROOKLYN, NY 11223","coor":{"lat":40.593579,"lng":-73.962315}},
{"name":"ASTRA SEAFOOD","address":"2584 CONEY ISLAND AVE, BROOKLYN, NY 11223","coor":{"lat":40.593843,"lng":-73.960919}},
{"name":"M&S GROCERY DELI","address":"2952 AVENUE, BROOKLYN, NY 11235","coor":{"lat":40.593901,"lng":-73.939831}},
{"name":"SANTA FE MEXICAN DELICA","address":"1206 AVENUE, BROOKLYN, NY 11229","coor":{"lat":40.593921,"lng":-73.95911}},
{"name":"FRANKY DELI AND GROCERY","address":"2962 AVENUE, BROOKLYN, NY 11235","coor":{"lat":40.593993,"lng":-73.939006}},
{"name":"GOURMET BOUTIQUE OF NY","address":"3688 NOSTRAND AVE, BROOKLYN, NY 11229","coor":{"lat":40.594111,"lng":-73.940685}},
{"name":"7-ELEVEN STORE 33709A","address":"133 35 AVENUE, BROOKLYN, NY 11223","coor":{"lat":40.594148,"lng":-73.979205}},
{"name":"BEST PRICE SALES CORP","address":"133 AVENUE, BROOKLYN, NY 11223","coor":{"lat":40.594148,"lng":-73.979205}},
{"name":"F&R GOLDFISH","address":"2749 OCEAN AVE, BROOKLYN, NY 11229","coor":{"lat":40.594321,"lng":-73.950453}},
{"name":"OCEAN GROCERY & DELI","address":"631 GRAVESEND NECK RD, BROOKLYN, NY 11223","coor":{"lat":40.594331,"lng":-73.963601}},
{"name":"KINGS KNAPP MOBIL","address":"2402 KNAPP ST, BROOKLYN, NY 11235","coor":{"lat":40.594338,"lng":-73.932956}},
{"name":"182 FRUIT & VEGETABLE","address":"182 AVENUE, BROOKLYN, NY 11223","coor":{"lat":40.59435,"lng":-73.97736}},
{"name":"ALL PURPOSE DELI","address":"3056 AVENUE, BROOKLYN, NY 11235","coor":{"lat":40.594382,"lng":-73.935464}},
{"name":"1223 GRAVESEND NECK RD","address":"1223 GRAVESEND NECK RD, BROOKLYN, NY 11229","coor":{"lat":40.594418,"lng":-73.95757}},
{"name":"INTERNATIONAL DELI","address":"3664 NOSTRAND AVE, BROOKLYN, NY 11229","coor":{"lat":40.594465,"lng":-73.940751}},
{"name":"EFE MARKET","address":"2741 OCEAN AVE, BROOKLYN, NY 11229","coor":{"lat":40.594486,"lng":-73.950482}},
{"name":"PARM RX EXPRESS","address":"1311 GRAVESEND NECK RD, BROOKLYN, NY 11229","coor":{"lat":40.594549,"lng":-73.957006}},
{"name":"SMA GOURMET DELI","address":"3670 NOSTRAND AVE, BROOKLYN, NY 11229","coor":{"lat":40.59457,"lng":-73.940771}},
{"name":"KHAN GROCERY","address":"2554 CONEY ISLAND AVE, BROOKLYN, NY 11223","coor":{"lat":40.594575,"lng":-73.96097}},
{"name":"C TOWN","address":"1709 AVENUE, BROOKLYN, NY 11229","coor":{"lat":40.594578,"lng":-73.953237}},
{"name":"SULTAN HALAL MEAT MARKE","address":"2732 OCEAN AVE, BROOKLYN, NY 11229","coor":{"lat":40.594695,"lng":-73.95052}},
{"name":"ELIZABETH FOOD","address":"1407 GRAVESEND NECK ROAD, BROOKLYN, NY 11229","coor":{"lat":40.594723,"lng":-73.956218}},
{"name":"DISCOUNT DAIRY FARM GRO","address":"2730 OCEAN AVE, BROOKLYN, NY 11229","coor":{"lat":40.594728,"lng":-73.950525}},
{"name":"D&G DELI GROCERY","address":"1421 GRAVESEND NECK RD, BROOKLYN, NY 11229","coor":{"lat":40.594806,"lng":-73.955821}},
{"name":"A1 DISCOUNT GROCERY","address":"160 GRAVESEND NECK RD, BROOKLYN, NY 11223","coor":{"lat":40.594872,"lng":-73.969594}},
{"name":"GERRITSEN GOURMET DELI","address":"2602 GERRITSEN AVE, BROOKLYN, NY 11229","coor":{"lat":40.594906,"lng":-73.927532}},
{"name":"CIRCLE 7 DELI","address":"1507 GRAVESEND NECK ROAD, BROOKLYN, NY 11229","coor":{"lat":40.594908,"lng":-73.955317}},
{"name":"L & L DELI GROCERY","address":"2013 AVENUE, BROOKLYN, NY 11229","coor":{"lat":40.594957,"lng":-73.94977}},
{"name":"PROGRESS MEAT MARKET","address":"2114 AVENUE, BROOKLYN, NY 11229","coor":{"lat":40.595058,"lng":-73.948832}},
{"name":"FAMILY EXPRESS 1 DELI","address":"8742 25TH AVENUE, BROOKLYN, NY 11214, ","coor":{"lat":40.595074,"lng":-73.990155}},
{"name":"NC MANUFACTURING","address":"1601 GRAVESEND NECK RD, BROOKLYN, NY 11229","coor":{"lat":40.5952,"lng":-73.954243}},
{"name":"NET COST MARKET","address":"2257 E 16TH ST, BROOKLYN, NY 11229","coor":{"lat":40.595428,"lng":-73.954812}},
{"name":"J.J. NEWSTAND","address":"2637 86TH ST, BROOKLYN, NY 11223","coor":{"lat":40.595939,"lng":-73.9839}},
{"name":"KHF TRADING","address":"2637 86TH ST, BROOKLYN, NY 11223","coor":{"lat":40.595939,"lng":-73.9839}},
{"name":"LUCKY 7 SMOKE SHOP/DELI","address":"180 BAY 35TH STREET, BROOKLYN, NY 11214","coor":{"lat":40.596,"lng":-73.99396}},
{"name":"MASTER SWEETS","address":"2306 MCDONALD AVE, BROOKLYN, NY 11223","coor":{"lat":40.596045,"lng":-73.973367}},
{"name":"HOMECREST V&I PHARMACY","address":"1826 GRAVESEND NECK RD, BROOKLYN, NY 11229","coor":{"lat":40.596076,"lng":-73.952199}},
{"name":"OCTOPUS GARDEN","address":"86 AVENUE, BROOKLYN, NY 11223, ","coor":{"lat":40.59612,"lng":-73.98113}},
{"name":"U FINE GROCERY","address":"87 AVENUE, BROOKLYN, NY 11223, ","coor":{"lat":40.596121,"lng":-73.98107}},
{"name":"MINI MART NOSTRAND AVE","address":"3600 NOSTRAND AVE, BROOKLYN, NY 11229","coor":{"lat":40.596163,"lng":-73.941071}},
{"name":"BROOKLYN STRICTLY KOSHE","address":"3604 NOSTRAND AVE, BROOKLYN, NY 11229","coor":{"lat":40.596227,"lng":-73.941083}},
{"name":"MET FOODS","address":"116 AVENUE, BROOKLYN, NY 11223","coor":{"lat":40.59624,"lng":-73.98006}},
{"name":"LA RAZA GROCERY & DELI","address":"3602 NOSTRAND AVENUE, BROOKLYN, NY 11229","coor":{"lat":40.596265,"lng":-73.94109}},
{"name":"129 AVENUE U GROCERY","address":"129 AVENUE, BROOKLYN, NY 11223","coor":{"lat":40.596276,"lng":-73.979644}},
{"name":"STILLWELL AVENUE SERVCE","address":"2620 86TH ST, BROOKLYN, NY 11223","coor":{"lat":40.596293,"lng":-73.984497}},
{"name":"ALSAHAR HOOKAH LOUNGE","address":"2631 86TH STREET, BROOKLYN, NY 11223","coor":{"lat":40.596327,"lng":-73.984556}},
{"name":"DAVIDS BAKERY&DELI","address":"2288 92 MCDONALD AVE, BROOKLYN, NY 11223","coor":{"lat":40.596331,"lng":-73.973326}},
{"name":"3596 S M DELI GROCERY","address":"3596 NOSTRAND AVE, BROOKLYN, NY 11229","coor":{"lat":40.59637,"lng":-73.94111}},
{"name":"U GOURMET DELI GRILL","address":"156 AVENUE, BROOKLYN, NY 11223","coor":{"lat":40.596393,"lng":-73.978614}},
{"name":"N&Z GROCERY","address":"156 AVENUE, BROOKLYN, NY 11223","coor":{"lat":40.596393,"lng":-73.978614}},
{"name":"KUAN SING SUPERMARKET","address":"1247 AVENUE, BROOKLYN, NY 11229","coor":{"lat":40.59645,"lng":-73.95822}},
{"name":"DREAMER FARMERS MARKET","address":"167 AVENUE, BROOKLYN, NY 11223","coor":{"lat":40.59646,"lng":-73.97809}},
{"name":"WIN DISCOUNT MART","address":"2328 BATH AVENUE, BROOKLYN, NY 11214","coor":{"lat":40.596488,"lng":-73.994356}},
{"name":"GRACE FOOD TOWN","address":"2326 BATH AVE, BROOKLYN, NY 11214","coor":{"lat":40.596513,"lng":-73.994393}},
{"name":"A&E CONVENIENCE","address":"3090 AVENUE, BROOKLYN, NY 11229","coor":{"lat":40.59663,"lng":-73.934566}},
{"name":"CHANG FA FOOD MARKET","address":"1418 AVENUE, BROOKLYN, NY 11229","coor":{"lat":40.59666,"lng":-73.95631}},
{"name":"CHOLULITA DELI GROCERY","address":"1501 AVE, BROOKLYN, NY 11229","coor":{"lat":40.596701,"lng":-73.95599}},
{"name":"F GROCERY AND FOOD CORP","address":"246 AVENUE, BROOKLYN, NY 11223","coor":{"lat":40.59677,"lng":-73.97525}},
{"name":"BRENMANS MEAT MARKET","address":"2496 GERRITSEN AVE, BROOKLYN, NY 11229","coor":{"lat":40.596788,"lng":-73.92964}},
{"name":"BAGEL & BEYOND","address":"257 AVENUE, BROOKLYN, NY 11223","coor":{"lat":40.59683,"lng":-73.97465}},
{"name":"NUCCIOS ITALIAN BAKERY","address":"261 AVENUE, BROOKLYN, NY 11223","coor":{"lat":40.59685,"lng":-73.9745}},
{"name":"CK DELI & GROCERY","address":"2570 86TH STREET, BROOKLYN, NY 11214","coor":{"lat":40.596865,"lng":-73.985462}},
{"name":"SMILEY NEWS","address":"2271 MCDONALD AVE, BROOKLYN, NY 11223","coor":{"lat":40.596954,"lng":-73.973238}},
{"name":"DENNIS GROCERY","address":"2302 BATH AVE, BROOKLYN, NY 11214","coor":{"lat":40.596988,"lng":-73.995085}},
{"name":"ADHM DELI","address":"3554 NOSTRAND AVE, BROOKLYN, NY 11229","coor":{"lat":40.597136,"lng":-73.941257}},
{"name":"RITE AID PHARMACY 02612","address":"344 AVENUE, BROOKLYN, NY 11223","coor":{"lat":40.59714,"lng":-73.97183}},
{"name":"PHARMACY 4 U","address":"1919A AVENUE, BROOKLYN, NY 11229","coor":{"lat":40.597206,"lng":-73.951493}},
{"name":"BATH AVE CANDY","address":"2272 BATH AVENUE, BROOKLYN, NY 11214","coor":{"lat":40.597229,"lng":-73.995435}},
{"name":"RITE AID PHARMACY 04565","address":"2532 54 86TH ST, BROOKLYN, NY 11214","coor":{"lat":40.597233,"lng":-73.986076}},
{"name":"WALGREENS #13146","address":"2535 86TH ST, BROOKLYN, NY 11214","coor":{"lat":40.597251,"lng":-73.986108}},
{"name":"V PHARMACY","address":"2124 GRAVESEND NECK RD, BROOKLYN, NY 11229","coor":{"lat":40.597264,"lng":-73.949234}},
{"name":"BERITOS DELI&GROCERY","address":"180 BAY 32ND ST, BROOKLYN, NY 11214","coor":{"lat":40.597397,"lng":-73.996096}},
{"name":"OURIS MARKET","address":"427 AVENUE, BROOKLYN, NY 11223","coor":{"lat":40.597526,"lng":-73.968304}},
{"name":"7-ELEVEN STORE 34172A","address":"2515 86TH ST, BROOKLYN, NY 11214","coor":{"lat":40.597532,"lng":-73.986577}},
{"name":"JUS BAR","address":"2166 E 5TH ST, BROOKLYN, NY 11223","coor":{"lat":40.597534,"lng":-73.96681}},
{"name":"STILLWELL 99 CENTS UP","address":"2009 STILLWELL AVE, BROOKLYN, NY 11223","coor":{"lat":40.597583,"lng":-73.985419}},
{"name":"SEA LAND SEAFOOD & MEAT","address":"2502 86TH ST, BROOKLYN, NY 11214","coor":{"lat":40.597691,"lng":-73.986831}},
{"name":"KINGS SUNSHINE DELI GRO","address":"2476 86TH STREET, BROOKLYN, NY 11214","coor":{"lat":40.598129,"lng":-73.987541}},
{"name":"BP GAS","address":"8775 BAY PKWY, BROOKLYN, NY 11214, ","coor":{"lat":40.598331,"lng":-73.99755}},
{"name":"DAS GROCERY","address":"2207 BATH AVE, BROOKLYN, NY 11214","coor":{"lat":40.59837,"lng":-73.99708}},
{"name":"QUICK STOP MINI MART","address":"2404 CONEY ISLAND AVE, BROOKLYN, NY 11223","coor":{"lat":40.598402,"lng":-73.961265}},
{"name":"CLEMENTES PORK&SALUMERA","address":"138 AVENUE, BROOKLYN, NY 11223","coor":{"lat":40.598517,"lng":-73.980167}},
{"name":"FAMILY CARE BY PHARMACY","address":"170 AVENUE, BROOKLYN, NY 11223","coor":{"lat":40.59867,"lng":-73.97878}},
{"name":"K & W PHARMACY","address":"170 AVENUE, BROOKLYN, NY 11223","coor":{"lat":40.59867,"lng":-73.97878}},
{"name":"NEW DELI FOOD","address":"2168 BATH AVE, BROOKLYN, NY 11214","coor":{"lat":40.598715,"lng":-73.997577}},
{"name":"CHONS FAMILY FISH","address":"184 AVENUE, BROOKLYN, NY 11223","coor":{"lat":40.598719,"lng":-73.978294}},
{"name":"BAY PARKWAY DELI GROCRY","address":"2171 BATH AVE, BROOKLYN, NY 11214","coor":{"lat":40.59875,"lng":-73.997628}},
{"name":"HERO DELI","address":"197 AVENUE, BROOKLYN, NY 11223","coor":{"lat":40.59878,"lng":-73.97769}},
{"name":"FOODTOWN","address":"1949 STILLWELL AVENUE, BROOKLYN, NY 11223","coor":{"lat":40.598798,"lng":-73.985649}},
{"name":"NADAY CARDS & GIFTS","address":"3042 AVENUE, BROOKLYN, NY 11229","coor":{"lat":40.59881,"lng":-73.93667}},
{"name":"DAIRY MAID RAVIOLI","address":"216 AVENUE, BROOKLYN, NY 11223","coor":{"lat":40.59884,"lng":-73.97714}},
{"name":"D&Y GROCERY","address":"1996 WEST 6TH ST, BROOKLYN, NY 11223","coor":{"lat":40.598901,"lng":-73.977956}},
{"name":"LA VILLITA GROCERY","address":"2086 E 13TH ST, BROOKLYN, NY 11229","coor":{"lat":40.598911,"lng":-73.958313}},
{"name":"EASY SHOP SUPERMARKET","address":"1520 AVENUE, BROOKLYN, NY 11229","coor":{"lat":40.598915,"lng":-73.95566}},
{"name":"AHMED'S GROCERY & HALAL","address":"2150 BATH AVE, BROOKLYN, NY 11214","coor":{"lat":40.598952,"lng":-73.997921}},
{"name":"HANNAN DELI & GROCERY","address":"1603 AVENUE, BROOKLYN, NY 11229","coor":{"lat":40.598962,"lng":-73.955251}},
{"name":"SHLOMI GLATT","address":"2380 CONEY ISLAND AVE, BROOKLYN, NY 11223","coor":{"lat":40.599005,"lng":-73.961301}},
{"name":"DOLLAR TREE #4126","address":"2402 86TH ST, BROOKLYN, NY 11214","coor":{"lat":40.599009,"lng":-73.988997}},
{"name":"MARINE PARK CAR CARE CT","address":"3095 AVENUE, BROOKLYN, NY 11229","coor":{"lat":40.599051,"lng":-73.934871}},
{"name":"JIA SHI DUO GROCERY","address":"1714 AVENUE, BROOKLYN, NY 11229","coor":{"lat":40.59908,"lng":-73.954}},
{"name":"NEW YORK MART","address":"1721 AVENUE, BROOKLYN, NY 11229","coor":{"lat":40.599129,"lng":-73.953826}},
{"name":"HEALTH IS WEALTH 1","address":"316 AVENUE, BROOKLYN, NY 11223","coor":{"lat":40.599271,"lng":-73.973326}},
{"name":"Y FISH MARKET","address":"316 AVENUE, BROOKLYN, NY 11223","coor":{"lat":40.599271,"lng":-73.973326}},
{"name":"U MINIMART","address":"1929 AVENUE, BROOKLYN, NY 11229","coor":{"lat":40.59928,"lng":-73.95226}},
{"name":"BAKU BAKERY","address":"1903 AVENUE, BROOKLYN, NY 11229","coor":{"lat":40.599284,"lng":-73.952386}},
{"name":"TASTY SPOT","address":"1911 AVENUE, BROOKLYN, NY 11229","coor":{"lat":40.599305,"lng":-73.952171}},
{"name":"TASTY DELI SUPERMARKET","address":"2381 86TH ST, BROOKLYN, NY 11214","coor":{"lat":40.599352,"lng":-73.989558}},
{"name":"86 B'KLYN GROCERY","address":"2377 86TH ST, BROOKLYN, NY 11214","coor":{"lat":40.599419,"lng":-73.989671}},
{"name":"RITE AID PHARMACY 03958","address":"2002 AVENUE, BROOKLYN, NY 11229","coor":{"lat":40.59942,"lng":-73.95104}},
{"name":"A&S PORK STORE","address":"361 AVENUE, BROOKLYN, NY 11223","coor":{"lat":40.599423,"lng":-73.971938}},
{"name":"SUPER FRESH","address":"2185 COYLE STREET, BROOKLYN, NY 11229","coor":{"lat":40.599426,"lng":-73.936857}},
{"name":"MET FOOD BASICS","address":"2185 COYLE STREET, BROOKLYN, NY 11229","coor":{"lat":40.599426,"lng":-73.936857}},
{"name":"RX EXPRESS PHARMACY","address":"2009 AVENUE, BROOKLYN, NY 11229","coor":{"lat":40.599428,"lng":-73.950977}},
{"name":"LOVE & DELICIOUS DELI &","address":"365 AVENUE, BROOKLYN, NY 11223","coor":{"lat":40.599437,"lng":-73.971803}},
{"name":"U FLOWER DELI GROCERY","address":"2101 AVENUE, BROOKLYN, NY 11229","coor":{"lat":40.599512,"lng":-73.950232}},
{"name":"TATUKA","address":"393 AVENUE, BROOKLYN, NY 11223","coor":{"lat":40.599566,"lng":-73.970588}},
{"name":"APPLE MARKET","address":"2541 OCEAN AVE, BROOKLYN, NY 11229","coor":{"lat":40.599596,"lng":-73.951455}},
{"name":"BERITOS II DELI & GROCE","address":"2364 86TH ST, BROOKLYN, NY 11214","coor":{"lat":40.599636,"lng":-73.990035}},
{"name":"LUCKY U MARKET","address":"2218 AVENUE, BROOKLYN, NY 11229","coor":{"lat":40.59965,"lng":-73.94887}},
{"name":"HARVEST GROCERY","address":"2220 AVENUE, BROOKLYN, NY 11229","coor":{"lat":40.59966,"lng":-73.9488}},
{"name":"TAP BEER","address":"2081 E 19TH ST, BROOKLYN, NY 11229","coor":{"lat":40.599671,"lng":-73.952697}},
{"name":"AHMAD DIN GROCERY","address":"2118 BATH AVE, BROOKLYN, NY 11214","coor":{"lat":40.599673,"lng":-73.998977}},
{"name":"KHASKY FOODS","address":"429 AVENUE, BROOKLYN, NY 11223","coor":{"lat":40.59971,"lng":-73.969328}},
{"name":"MIMI JUICE","address":"2077 2079 E 19TH ST, BROOKLYN, NY 11229","coor":{"lat":40.599762,"lng":-73.952715}},
{"name":"PEOPLES BAKERY & PASTRY","address":"2355 86TH ST, BROOKLYN, NY 11214","coor":{"lat":40.599769,"lng":-73.990255}},
{"name":"ROYAL DELI GRILL","address":"2024 CROPSEY AVE, BROOKLYN, NY 11214","coor":{"lat":40.599815,"lng":-74.00226}},
{"name":"CHEN AND ZHU","address":"2348 86TH ST, BROOKLYN, NY 11214","coor":{"lat":40.599829,"lng":-73.990354}},
{"name":"LAI FU 88 GROCERY","address":"2102 BATH AVE, BROOKLYN, NY 11214","coor":{"lat":40.599895,"lng":-73.999291}},
{"name":"HAO ZHI","address":"2345 86TH ST, BROOKLYN, NY 11214","coor":{"lat":40.599928,"lng":-73.990515}},
{"name":"CVS PHARMACY 05134","address":"2014 CROPSEY AVE, BROOKLYN, NY 11214","coor":{"lat":40.599941,"lng":-74.00244}},
{"name":"MPY INTERNATIONAL FOODS","address":"2010 CROPSEY AVE, BROOKLYN, NY 11214","coor":{"lat":40.60001,"lng":-74.002539}},
{"name":"H&K FOOD MART","address":"2001 CROPSEY AVENUE, BROOKLYN, NY 11214","coor":{"lat":40.600066,"lng":-74.00262}},
{"name":"7955 AE COMPANY INC.","address":"2323 86TH ST, BROOKLYN, NY 11214","coor":{"lat":40.600136,"lng":-73.990855}},
{"name":"AVENUE U FISH MARKET","address":"2704 AVENUE, BROOKLYN, NY 11229","coor":{"lat":40.600143,"lng":-73.944515}},
{"name":"LUCKY 7 SMOKE SHOP & DE","address":"2713 AVENUE, BROOKLYN, NY 11229","coor":{"lat":40.60017,"lng":-73.94428}},
{"name":"LIUS DELI","address":"2061 BATH AVE, BROOKLYN, NY 11214","coor":{"lat":40.600174,"lng":-73.99969}},
{"name":"HONG DA SUPERMARKET","address":"2319 86TH STREET, BROOKLYN, NY 11214","coor":{"lat":40.600223,"lng":-73.991}},
{"name":"SUNRISE 99 CENT STORE","address":"2317 86TH ST, BROOKLYN, NY 11214","coor":{"lat":40.600254,"lng":-73.991052}},
{"name":"NEW S & C SUPER MARKET","address":"2314 86TH ST, BROOKLYN, NY 11214","coor":{"lat":40.600319,"lng":-73.991161}},
{"name":"DOLLAR TREE #05611","address":"2114 COYLE STREET, BROOKLYN, NY 11229","coor":{"lat":40.600327,"lng":-73.937035}},
{"name":"2317 CONEY CONVENIENCE","address":"2317 CONEY ISLAND AVE, BROOKLYN, NY 11223","coor":{"lat":40.600335,"lng":-73.961287}},
{"name":"TASANO DELI CORP","address":"1896 STILLWELL AVE, BROOKLYN, NY 11223","coor":{"lat":40.600405,"lng":-73.985969}},
{"name":"FLATBUSH BEER CO","address":"2115 COYLE ST, BROOKLYN, NY 11229","coor":{"lat":40.600497,"lng":-73.937069}},
{"name":"BORBAS PHARMACY","address":"2046 BATH AVE, BROOKLYN, NY 11214","coor":{"lat":40.600571,"lng":-74.000264}},
{"name":"SWEET HARVEST FOOD","address":"2279 86TH ST, BROOKLYN, NY 11214","coor":{"lat":40.60068,"lng":-73.991758}},
{"name":"CHERRI HILL MARKET","address":"2284 86TH ST, BROOKLYN, NY 11214","coor":{"lat":40.600681,"lng":-73.991759}},
{"name":"SKY WAY GROCERY & HALAL","address":"2038 BATH AVENUE, BROOKLYN, NY 11214","coor":{"lat":40.600712,"lng":-74.00047}},
{"name":"WEST 10 GROCERY","address":"97 AVENUE S, BROOKLYN, NY 11223, ","coor":{"lat":40.600733,"lng":-73.98203}},
{"name":"MINA GROCERY","address":"122 AVENUE S, BROOKLYN, NY 11223","coor":{"lat":40.600839,"lng":-73.981096}},
{"name":"VUCCIRIA FOOD GOURMET","address":"2271 2277 86TH ST, BROOKLYN, NY 11214","coor":{"lat":40.600843,"lng":-73.992023}},
{"name":"RITE WAY","address":"2269 86TH STREET, BROOKLYN, NY 11214","coor":{"lat":40.600875,"lng":-73.992074}},
{"name":"SHALOM GROCERY","address":"2306 CONEY ISLAND AVE, BROOKLYN, NY 11223","coor":{"lat":40.600886,"lng":-73.961458}},
{"name":"CARLS DAIRY & GROCERY","address":"8514 23RD AVE, BROOKLYN, NY 11214, ","coor":{"lat":40.600893,"lng":-73.991267}},
{"name":"KINGS ONE STOP MOBIL","address":"2228 GERRITSEN AVE, BROOKLYN, NY 11229","coor":{"lat":40.600964,"lng":-73.934179}},
{"name":"BEST ISLAND FARM","address":"2259 86TH ST, BROOKLYN, NY 11214","coor":{"lat":40.600997,"lng":-73.992273}},
{"name":"KEY FOOD 1154","address":"2245 GERRITSEN AVE, BROOKLYN, NY 11229","coor":{"lat":40.601039,"lng":-73.934263}},
{"name":"1919 DELI AND GROCERY","address":"1919 CROPSEY AVENUE, BROOKLYN, NY 11214","coor":{"lat":40.601089,"lng":-74.00448}},
{"name":"BATH AVE GROCERY","address":"2018 BATH AVE, BROOKLYN, NY 11214","coor":{"lat":40.601099,"lng":-74.001031}},
{"name":"DING XIN","address":"190 AVENUE S, BROOKLYN, NY 11223","coor":{"lat":40.60111,"lng":-73.978662}},
{"name":"PANE AL FORNO","address":"200 AVE S, BROOKLYN, NY 11223","coor":{"lat":40.601178,"lng":-73.978062}},
{"name":"BANANA KINGS","address":"1601 AVENUE, BROOKLYN, NY 11229","coor":{"lat":40.601186,"lng":-73.95573}},
{"name":"THANKSGIVING SUPERMARKE","address":"2243 2247 86TH ST, BROOKLYN, NY 11214","coor":{"lat":40.601209,"lng":-73.992624}},
{"name":"WALGREENS #10064","address":"3082 AVENUE, BROOKLYN, NY 11229","coor":{"lat":40.601243,"lng":-73.935819}},
{"name":"NOEL DELI&GROCERY","address":"1890 W 6TH ST, BROOKLYN, NY 11223","coor":{"lat":40.601279,"lng":-73.978407}},
{"name":"CROPSEY SERVICE STATION","address":"1907 CROPSEY AVE, BROOKLYN, NY 11214","coor":{"lat":40.601279,"lng":-74.004841}},
{"name":"MORALES GROCERY & DELI","address":"2006 BATH AVENUE, BROOKLYN, NY 11214","coor":{"lat":40.601279,"lng":-74.001288}},
{"name":"SUPER FENG DISCOUNT","address":"2235 86TH ST, BROOKLYN, NY 11214","coor":{"lat":40.601324,"lng":-73.992815}},
{"name":"QUALITY DELICATESSEN","address":"2002 BATH AVE, BROOKLYN, NY 11214","coor":{"lat":40.601349,"lng":-74.001389}},
{"name":"Z & J FOOD MARKET","address":"2233 86TH ST, BROOKLYN, NY 11214","coor":{"lat":40.601363,"lng":-73.99288}},
{"name":"GOLDEN CITY SUPERMARKET","address":"2217 86TH STREET, BROOKLYN, NY 11214","coor":{"lat":40.601597,"lng":-73.993262}},
{"name":"NEW SUN LEE GROCERY","address":"1965 BATH AVE, BROOKLYN, NY 11214","coor":{"lat":40.601603,"lng":-74.001821}},
{"name":"US ASIA MARKET","address":"2218 86TH ST, BROOKLYN, NY 11214","coor":{"lat":40.601627,"lng":-73.99331}},
{"name":"BND BAKERY","address":"2017 AVENUE, BROOKLYN, NY 11229","coor":{"lat":40.60169,"lng":-73.95119}},
{"name":"REGAL REMEDIES PHARMACY","address":"1853 CROPSEY AVE, BROOKLYN, NY 11214","coor":{"lat":40.601753,"lng":-74.005752}},
{"name":"AB MINI MART","address":"2204 86TH ST, BROOKLYN, NY 11214","coor":{"lat":40.601771,"lng":-73.99354}},
{"name":"A&B GROCERY STORE","address":"353 AVENUE S, BROOKLYN, NY 11223","coor":{"lat":40.601781,"lng":-73.972696}},
{"name":"SEMSEM FRUIT&GROCERY","address":"1955 BATH AVE, BROOKLYN, NY 11214","coor":{"lat":40.601812,"lng":-74.002211}},
{"name":"GAMAL MINI MART","address":"2176 86TH ST, BROOKLYN, NY 11214","coor":{"lat":40.602135,"lng":-73.994126}},
{"name":"8508 GOURMET DELI & GRI","address":"8508 BAY PARKWAY, BROOKLYN, NY 11214, ","coor":{"lat":40.602335,"lng":-73.993404}},
{"name":"DILLY , DELI","address":"1806 STILLWELL AVE, BROOKLYN, NY 11223","coor":{"lat":40.60235,"lng":-73.986329}},
{"name":"KOSHER CORNER SUPERMKT","address":"2055 MCDONALD AVE, BROOKLYN, NY 11223","coor":{"lat":40.602364,"lng":-73.97248}},
{"name":"VICTORY MEAT CENTER","address":"8506 BAY PARKWAY, BROOKLYN, NY 11214, ","coor":{"lat":40.6024,"lng":-73.993336}},
{"name":"VINCENT FARMS 9","address":"8501 BAY PKWY, BROOKLYN, NY 11214, ","coor":{"lat":40.602436,"lng":-73.993299}},
{"name":"BAY PKWY GROCERY CANDY","address":"8511 BAY PKWY, BROOKLYN, NY 11214, ","coor":{"lat":40.602471,"lng":-73.993262}},
{"name":"STILLWELL CONVENIENCE","address":"1801 STILLWELL AVE, BROOKLYN, NY 11223","coor":{"lat":40.602498,"lng":-73.986352}},
{"name":"CVS 02441","address":"2151 86TH ST, BROOKLYN, NY 11214","coor":{"lat":40.602505,"lng":-73.99475}},
{"name":"7 ELEVEN STORE #27037J","address":"3342 NOSTRAND AVE, BROOKLYN, NY 11229","coor":{"lat":40.60253,"lng":-73.942286}},
{"name":"AVE S MINI MARKET","address":"802 AVENUE S, BROOKLYN, NY 11223, ","coor":{"lat":40.602764,"lng":-73.963776}},
{"name":"NO 2 BUS STOP DELI GRCY","address":"1858 BATH AVE, BROOKLYN, NY 11214","coor":{"lat":40.602933,"lng":-74.004349}},
{"name":"1101 AVE S CONVENIENCE","address":"1101 AVENUE S, BROOKLYN, NY 11223","coor":{"lat":40.603026,"lng":-73.961342}},
{"name":"H&H GROCERY","address":"146 HIGHLAWN AVE, BROOKLYN, NY 11223","coor":{"lat":40.603278,"lng":-73.980608}},
{"name":"MEATS SUPREME","address":"181 AVENUE, BROOKLYN, NY 11223","coor":{"lat":40.60344,"lng":-73.979142}},
{"name":"GOOD LUCK CONVENIENCE","address":"1818 BATH AVE, BROOKLYN, NY 11214","coor":{"lat":40.603479,"lng":-74.005392}},
{"name":"HIGHLAWN GRILL DELI","address":"196 HIGHLAWN AVE, BROOKLYN, NY 11223","coor":{"lat":40.603497,"lng":-73.978637}},
{"name":"CAMPOS DELI GROCERY","address":"204 HIGHLAWN AVE, BROOKLYN, NY 11223","coor":{"lat":40.603532,"lng":-73.978324}},
{"name":"KEY FOOD 1160","address":"8772 18TH AVE, BROOKLYN, NY 11214, ","coor":{"lat":40.603564,"lng":-74.006509}},
{"name":"21ST AVENUE PHARMACY &","address":"8511 21ST AVE, BROOKLYN, NY 11214, ","coor":{"lat":40.603633,"lng":-73.99569}},
{"name":"UNITED EXPRESS","address":"237 AVENUE, BROOKLYN, NY 11223","coor":{"lat":40.603659,"lng":-73.977147}},
{"name":"C TOWN","address":"237 AVENUE, BROOKLYN, NY 11223","coor":{"lat":40.603659,"lng":-73.977147}},
{"name":"21ST AVE GRILL & DELI","address":"8508 21ST AVE, BROOKLYN, NY 11214, ","coor":{"lat":40.603671,"lng":-73.995651}},
{"name":"J'S DELI & GROCERY","address":"8712 19TH AVENUE, BROOKLYN, NY 11214, ","coor":{"lat":40.603749,"lng":-74.002722}},
{"name":"LA CHAPINCITA","address":"1806 BATH AVE, BROOKLYN, NY 11214","coor":{"lat":40.603751,"lng":-74.005915}},
{"name":"MIDDLE EASTERN GROCERY","address":"1801 BATH AVENUE, BROOKLYN, NY 11214","coor":{"lat":40.603751,"lng":-74.005915}},
{"name":"KD FOOD MARKET","address":"8502 21ST AVE, BROOKLYN, NY 11214, ","coor":{"lat":40.603796,"lng":-73.995524}},
{"name":"IV SEASONS DELI GROCERY","address":"1802 AVENUE, BROOKLYN, NY 11229","coor":{"lat":40.603808,"lng":-73.954265}},
{"name":"KING EXPRESS DELI","address":"1801 AVENUE, BROOKLYN, NY 11229","coor":{"lat":40.603815,"lng":-73.954202}},
{"name":"SANA EXPRESS DELI","address":"1801 AVENUE, BROOKLYN, NY 11229","coor":{"lat":40.603815,"lng":-73.954202}},
{"name":"GENERAL NUTRITION 9468","address":"2049 86TH STREET, BROOKLYN, NY 11214","coor":{"lat":40.603889,"lng":-73.997069}},
{"name":"MGM NY ASSOCIATES","address":"1769 BATH AVE, BROOKLYN, NY 11214","coor":{"lat":40.603979,"lng":-74.006322}},
{"name":"86 PHARMACY","address":"2042 86TH ST, BROOKLYN, NY 11214","coor":{"lat":40.604012,"lng":-73.997268}},
{"name":"KINGS HWY DELI EXPRESS","address":"478 KINGS HWY, BROOKLYN, NY 11223","coor":{"lat":40.604191,"lng":-73.972038}},
{"name":"JUICE BAR & GRILL","address":"484 KINGS HWY, BROOKLYN, NY 11223","coor":{"lat":40.604211,"lng":-73.97185}},
{"name":"DEEDAN CANDY & GROCERY","address":"484 KINGS HWY, BROOKLYN, NY 11223","coor":{"lat":40.604211,"lng":-73.97185}},
{"name":"KINGS 99 CENTS & UP","address":"464 KINGS HWY, BROOKLYN, NY 11223","coor":{"lat":40.604254,"lng":-73.972794}},
{"name":"SHENGTAI JIAYUAN GROCER","address":"455 KINGS HWY, BROOKLYN, NY 11223","coor":{"lat":40.60427,"lng":-73.97296}},
{"name":"PET FOODS PLUS","address":"495 KINGS HWY, BROOKLYN, NY 11223","coor":{"lat":40.604279,"lng":-73.971319}},
{"name":"KINGS HIGHWAY GLATT MTS","address":"497 KINGS HWY, BROOKLYN, NY 11223","coor":{"lat":40.604295,"lng":-73.971192}},
{"name":"P&K PRODUCE","address":"449 KINGS HWY, BROOKLYN, NY 11223","coor":{"lat":40.604321,"lng":-73.973429}},
{"name":"BRIGANTINA","address":"443 KINGS HWY, BROOKLYN, NY 11223","coor":{"lat":40.604336,"lng":-73.97356}},
{"name":"CHALOUH INTL FOOD","address":"509 KINGS HWY, BROOKLYN, NY 11223","coor":{"lat":40.604365,"lng":-73.970654}},
{"name":"YOUNG T PYON","address":"507 KINGS HWY, BROOKLYN, NY 11223","coor":{"lat":40.604365,"lng":-73.970655}},
{"name":"QUICK DELI & GRILL CORP","address":"432 KINGS HWY, BROOKLYN, NY 11223","coor":{"lat":40.604408,"lng":-73.974172}},
{"name":"AVNER KOSHER FISH MARKE","address":"521 KINGS HIGHWAY, BROOKLYN, NY 11223","coor":{"lat":40.604419,"lng":-73.970232}},
{"name":"PAPPARICH","address":"2012 86TH STREET, BROOKLYN, NY 11214","coor":{"lat":40.604433,"lng":-73.997964}},
{"name":"ADAMS DELI ON THE CORNE","address":"525 KINGS HWY, BROOKLYN, NY 11223","coor":{"lat":40.604458,"lng":-73.969912}},
{"name":"HADERA","address":"527 KINGS HWY, BROOKLYN, NY 11223","coor":{"lat":40.604465,"lng":-73.969845}},
{"name":"PAKSEY ASSOCOATES","address":"2006 86TH ST, BROOKLYN, NY 11214","coor":{"lat":40.604473,"lng":-73.99803}},
{"name":"KINGSWAY BAKERY","address":"540 KINGS HWY, BROOKLYN, NY 11223","coor":{"lat":40.604508,"lng":-73.96945}},
{"name":"SY CUISINE CATERING","address":"543 KINGS HIGHWAY, BROOKLYN, NY 11223","coor":{"lat":40.604521,"lng":-73.969331}},
{"name":"PUBLIC GROCERY STORE","address":"399 KINGS HWY, BROOKLYN, NY 11223","coor":{"lat":40.604547,"lng":-73.975401}},
{"name":"CANDY GROCERY LOTTO","address":"8520 20TH AVENUE, BROOKLYN, NY 11214, ","coor":{"lat":40.604809,"lng":-73.998049}},
{"name":"MY FAVORITE DELI","address":"1978 86TH STREET, BROOKLYN, NY 11214","coor":{"lat":40.604833,"lng":-73.998629}},
{"name":"BENNY IS BACK DELI GROC","address":"1722 BATH AVE, BROOKLYN, NY 11214","coor":{"lat":40.604869,"lng":-74.007797}},
{"name":"KOSHER PLAZA","address":"571 KINGS HWY, BROOKLYN, NY 11223","coor":{"lat":40.604897,"lng":-73.968272}},
{"name":"BAY PARKWAY FOOD","address":"320 KINGS HWY, BROOKLYN, NY 11223","coor":{"lat":40.604949,"lng":-73.978285}},
{"name":"KEY FOOD","address":"319 KINGS HWY, BROOKLYN, NY 11223","coor":{"lat":40.604977,"lng":-73.978477}},
{"name":"SAN FRANCIS DELI GROCER","address":"2915 AVENUE, BROOKLYN, NY 11229","coor":{"lat":40.605021,"lng":-73.943242}},
{"name":"SRR CONVENIENCE STORE","address":"315 KINGS HWY, BROOKLYN, NY 11223","coor":{"lat":40.605024,"lng":-73.978789}},
{"name":"DIANA INTERNATIONAL","address":"308 KINGS HIGHWAY, BROOKLYN, NY 11223","coor":{"lat":40.605033,"lng":-73.978851}},
{"name":"LAVILLITA DELI GROCERY","address":"310 KINGS HIGHWAY, BROOKLYN, NY 11223","coor":{"lat":40.60506,"lng":-73.979031}},
{"name":"PISA PORK STORE","address":"306 KINGS HWY, BROOKLYN, NY 11223","coor":{"lat":40.605074,"lng":-73.979126}},
{"name":"MAKOLET YERUSHALIM","address":"727 AVENUE, BROOKYLN, NY 11223","coor":{"lat":40.605086,"lng":-73.964549}},
{"name":"WEST 6 FRUITS & VEGETAB","address":"294 KINGS HWY, BROOKLYN, NY 11223","coor":{"lat":40.60512,"lng":-73.979556}},
{"name":"KINGS HIGHWAY BAKERY","address":"292 KINGS HWY, BROOKLYN, NY 11223","coor":{"lat":40.605126,"lng":-73.979618}},
{"name":"GREEN FOOD SUPERMARKET","address":"8504 20TH AVE, BROOKLYN, NY 11214, ","coor":{"lat":40.605154,"lng":-73.997686}},
{"name":"CHOI YANG","address":"2952 AVENUE S, BROOKLYN, NY 11229","coor":{"lat":40.605166,"lng":-73.941929}},
{"name":"WALGREENS #12080","address":"285 KINGS HWY, BROOKLYN, NY 11223","coor":{"lat":40.605168,"lng":-73.980015}},
{"name":"SUI LAM KUNG","address":"280 KINGS HWY, BROOKLYN, NY 11223","coor":{"lat":40.6052,"lng":-73.980311}},
{"name":"MEATS SUPREME","address":"1949 51 86TH ST, BROOKLYN, NY 11214","coor":{"lat":40.605202,"lng":-73.999248}},
{"name":"I LOVE FARM","address":"1947 86TH ST, BROOKLYN, NY 11214","coor":{"lat":40.605239,"lng":-73.999311}},
{"name":"KINGS 7 DELI & GROCERY","address":"268 KINGS HWY, BROOKLYN, NY 11223","coor":{"lat":40.605241,"lng":-73.980691}},
{"name":"SMART COST","address":"255 KING HWY, BROOKLYN, NY 11223","coor":{"lat":40.605297,"lng":-73.981211}},
{"name":"NICKS DISCOUNT STORE","address":"1669 BATH AVENUE, BROOKLYN, NY 11214","coor":{"lat":40.605344,"lng":-74.008573}},
{"name":"BAGELS ON KINGS","address":"228 KINGS HWY, BROOKLYN, NY 11223","coor":{"lat":40.605408,"lng":-73.982297}},
{"name":"QUENTIN DELI","address":"84 QUENTIN RD, BROOKLYN, NY 11223, ","coor":{"lat":40.605436,"lng":-73.98355}},
{"name":"W AND L KINGS HIGHWAY M","address":"216 KINGS HIGHWAY, BROOKLYN, NY 11223","coor":{"lat":40.605446,"lng":-73.982682}},
{"name":"GUO DONG CHEN","address":"216 KINGS HIGHWAY, BROOKLYN, NY 11223","coor":{"lat":40.605446,"lng":-73.982682}},
{"name":"WESTSIDE PHARMACY","address":"210 AVENUE, BROOKLYN, NY 11223","coor":{"lat":40.605455,"lng":-73.983222}},
{"name":"LN KIEV","address":"212 KINGS HWY, BROOKLYN, NY 11223","coor":{"lat":40.60546,"lng":-73.982827}},
{"name":"JAZMINS FOOD","address":"1656 BATH AVE, BROOKLYN, NY 11214","coor":{"lat":40.605479,"lng":-74.008798}},
{"name":"MS CORNER DELI GROCERY","address":"1714 W 6TH ST, BROOKLYN, NY 11223","coor":{"lat":40.605505,"lng":-73.979211}},
{"name":"MINA CORNER DELI","address":"1225 AVENUE, BROOKLYN, NY 11229","coor":{"lat":40.60556,"lng":-73.95984}},
{"name":"WHITE MOUNTAIN GROCERY","address":"8406 20TH AVE, BROOKLYN, NY 11214, ","coor":{"lat":40.605633,"lng":-73.997201}},
{"name":"MEDWAY PHARMACY","address":"1914 86TH ST, BROOKLYN, NY 11214","coor":{"lat":40.605655,"lng":-73.999996}},
{"name":"EDDIE FANCY FOOD","address":"8611 19TH AVE, BROOKLYN, NY 11214, ","coor":{"lat":40.605661,"lng":-74.00073}},
{"name":"ROYAL SEAFOOD","address":"8419 20TH AVE, BROOKLYN, NY 11214, ","coor":{"lat":40.605661,"lng":-73.997173}},
{"name":"RITE AID PHARMACY 01881","address":"185 KINGS HWY, BROOKLYN, NY 11223","coor":{"lat":40.605668,"lng":-73.984567}},
{"name":"NEW UNIVERSAL GROCERY","address":"141 AVENUE, BROOKLYN, NY 11223","coor":{"lat":40.605683,"lng":-73.981434}},
{"name":"86TH STREET GROCERY","address":"1910 86TH STREET, BROOKLYN, NY 11214","coor":{"lat":40.605718,"lng":-74.000101}},
{"name":"AVE U FISH MARKET","address":"1406 AVENUE, BROOKLYN, NY 11229","coor":{"lat":40.605729,"lng":-73.95836}},
{"name":"POSEIDON NY","address":"8680 18TH AVE, BROOKLYN, NY 11214, ","coor":{"lat":40.605759,"lng":-74.004228}},
{"name":"NET COST MARKET","address":"8671 18TH AVE, BROOKLYN, NY 11214, ","coor":{"lat":40.605824,"lng":-74.00416}},
{"name":"FRUIT&VEGETABLES","address":"8323 20TH AVE, BROOKLYN, NY 11214, ","coor":{"lat":40.605871,"lng":-73.996954}},
{"name":"SQUIRREL BELKA","address":"8319 20TH AVE, BROOKLYN, NY 11214, ","coor":{"lat":40.605958,"lng":-73.996861}},
{"name":"AVE U KING FARMER & DEL","address":"1701 AVENUE, BROOKLYN, NY 11229","coor":{"lat":40.60603,"lng":-73.95551}},
{"name":"19TH AVE DELI & GROCERY","address":"1880 86TH STREET, BROOKLYN, NY 11214","coor":{"lat":40.606055,"lng":-74.000656}},
{"name":"H2H DELI&GROCERY","address":"249 AVENUE, BROOKLYN, NY 11223","coor":{"lat":40.606181,"lng":-73.977007}},
{"name":"FRUITS AND GEGETABLES B","address":"249 AVENUE, BROOKLYN, NY 11223","coor":{"lat":40.606181,"lng":-73.977007}},
{"name":"THE ROCK HOUSE","address":"263 AVENUE, BROOKLYN, NY 11223","coor":{"lat":40.606226,"lng":-73.976576}},
{"name":"JERUSALEM GLATT MEATS","address":"710 KINGS HWY, BROOKLYN, NY 11223","coor":{"lat":40.60623,"lng":-73.965343}},
{"name":"OMNI HEALTH","address":"265 AVENUE, BROOKLYN, NY 11223","coor":{"lat":40.606262,"lng":-73.976258}},
{"name":"SUPERNUTS","address":"724 KINGS HWY, BROOKLYN, NY 11223","coor":{"lat":40.606358,"lng":-73.964972}},
{"name":"HAPPY FRUIT MARKET","address":"289 AVENUE, BROOKLYN, NY 11223","coor":{"lat":40.606382,"lng":-73.975243}},
{"name":"SG CONVENIENCE","address":"730 KINGS HWY, BROOKLYN, NY 11223","coor":{"lat":40.606406,"lng":-73.964835}},
{"name":"1626 MINI MART","address":"1626 STILLWELL AVE, BROOKLYN, NY 11223","coor":{"lat":40.60641,"lng":-73.987098}},
{"name":"BUSY CORNER FRUITS&VGTB","address":"801 KINGS HWY, BROOKLYN, NY 11223, ","coor":{"lat":40.606552,"lng":-73.964398}},
{"name":"STEVES SALUMERIA","address":"1602 BATH AVE, BROOKLYN, NY 11214","coor":{"lat":40.606562,"lng":-74.010598}},
{"name":"CHALOUH MIDDLE EAST GRO","address":"349 AVENUE, BROOKLYN, NY 11223","coor":{"lat":40.606632,"lng":-73.972998}},
{"name":"Y&Y FARM","address":"1572 BATH AVE, BROOKLYN, NY 11228","coor":{"lat":40.606793,"lng":-74.010977}},
{"name":"ALDOS DELI & BAGELS","address":"906 KINGS HIGHWAY, BROOKLYN, NY 11223, ","coor":{"lat":40.606827,"lng":-73.963524}},
{"name":"CORNER STOP MINI MART","address":"2423 AVENUE, BROOKLYN, NY 11229","coor":{"lat":40.606859,"lng":-73.94811}},
{"name":"KORNS BAKERY","address":"914 KINGS HIGHWAY, BROOKLYN, NY 11223, ","coor":{"lat":40.606874,"lng":-73.963372}},
{"name":"ADAMS DELI","address":"922 KINGS HIGHWAY, BROOKLYN, NY 11223, ","coor":{"lat":40.606949,"lng":-73.963126}},
{"name":"MONG KOK SUPERMARKET","address":"1815 86TH STREET, BROOKLYN, NY 11214","coor":{"lat":40.606963,"lng":-74.00215}},
{"name":"PRIME CUT THE","address":"431 AVENUE, BROOKLYN, NY 11223","coor":{"lat":40.606964,"lng":-73.9699}},
{"name":"BB&T DISTRIBUTION","address":"2602 AVENUE, BROOKLYN, NY 11229","coor":{"lat":40.606997,"lng":-73.94681}},
{"name":"BB&O FOOD STORE","address":"2602 AVENUE, BROOKLYN, NY 11229","coor":{"lat":40.606997,"lng":-73.94681}},
{"name":"MUSCAT MARKET","address":"2613 AVENUE, BROOKLYN, NY 11229","coor":{"lat":40.607038,"lng":-73.94645}},
{"name":"KGM GLAT","address":"936 KINGS HWY, BROOKLYN, NY 11223, ","coor":{"lat":40.607061,"lng":-73.962761}},
{"name":"7-ELEVEN STORE 33680A","address":"953 KINGS HWY, BROOKLYN, NY 11223, ","coor":{"lat":40.607079,"lng":-73.962704}},
{"name":"AROUND THE CLOCK DELI","address":"8601 18TH AVE, BROOKLYN, NY 11214, ","coor":{"lat":40.607122,"lng":-74.002797}},
{"name":"WALGREENS 6982","address":"946 KINGS HWY, BROOKLYN, NY 11223, ","coor":{"lat":40.607207,"lng":-73.96229}},
{"name":"KANG SHENG GROCERY","address":"34 AVENUE, BROOKLYN, NY 11204","coor":{"lat":40.607302,"lng":-73.986751}},
{"name":"BENSON MINI MARKET","address":"1653 BENSON AVE, BROOKLYN, NY 11214","coor":{"lat":40.607307,"lng":-74.007302}},
{"name":"2924 MINI MART","address":"2924 AVENUE, BROOKLYN, NY 11229","coor":{"lat":40.607374,"lng":-73.943372}},
{"name":"FREDDYS ON U","address":"702 AVENUE, BROOKLYN, NY 11223","coor":{"lat":40.607441,"lng":-73.965521}},
{"name":"FONG & ZHOU SUPERMARKET","address":"8514 18TH AVENUE, BROOKLYN, NY 11214, ","coor":{"lat":40.607441,"lng":-74.002417}},
{"name":"JOHN BATH AVE GROCERY","address":"1525 BATH AVENUE, BROOKLYN, NY 11228","coor":{"lat":40.607496,"lng":-74.012141}},
{"name":"ALDOS DELI & GROCERY","address":"105 AVE, BROOKLYN, NY 11204","coor":{"lat":40.6076,"lng":-73.98413}},
{"name":"AMAN US","address":"8017 20TH AVE, BROOKLYN, NY 11214, ","coor":{"lat":40.607611,"lng":-73.995102}},
{"name":"86TH ST GOURMET DELI &","address":"8523 18TH AVENUE, BROOKLYN, NY 11214, ","coor":{"lat":40.607709,"lng":-74.002086}},
{"name":"18TH GOURMET DELI","address":"8501 18TH AVE, BROOKLYN, NY 11214, ","coor":{"lat":40.607728,"lng":-74.002062}},
{"name":"BOCCIA BAKERY","address":"157 AVENUE, BROOKLYN, NY 11204","coor":{"lat":40.60781,"lng":-73.98229}},
{"name":"AMERICAN INTERNATIONAL","address":"8022 20TH AVE, BROOKLYN, NY 11214, ","coor":{"lat":40.607875,"lng":-73.994833}},
{"name":"QUENTIN CORNER FOOD MAR","address":"1101 QUENTIN ROAD, BROOKLYN, NY 11229","coor":{"lat":40.607879,"lng":-73.961645}},
{"name":"EL TAMARINDO DELI GRCY","address":"1729 86TH ST, BROOKLYN, NY 11214","coor":{"lat":40.607951,"lng":-74.003786}},
{"name":"KINGS FOOD & GRILL","address":"1702 E 16TH STREET, BROOKLYN, NY 11229","coor":{"lat":40.608116,"lng":-73.957196}},
{"name":"L & C 8416 GROCERY","address":"8416 18TH AVENUE, BROOKLYN, NY 11214, ","coor":{"lat":40.608312,"lng":-74.001345}},
{"name":"N & C GROCERY","address":"8416 18TH AVENUE, BROOKLYN, NY 11214, ","coor":{"lat":40.608312,"lng":-74.001345}},
{"name":"QUENTIN GROCERY","address":"1692 EAST 16TH STREET, BROOKLYN, NY 11229","coor":{"lat":40.608429,"lng":-73.957254}},
{"name":"TASTY BAGELS","address":"1705 86TH ST, BROOKLYN, NY 11214","coor":{"lat":40.60845,"lng":-74.004619}},
{"name":"CVS PHARMACY #644","address":"8430 NEW UTRECHT AVE, BROOKLYN, NY 11214, ","coor":{"lat":40.608463,"lng":-74.001785}},
{"name":"NY 99 CENTS STORE","address":"8402 18TH AVE, BROOKLYN, NY 11214, ","coor":{"lat":40.608464,"lng":-74.001157}},
{"name":"BENSONHURST GROCERY","address":"1702 86TH ST, BROOKLYN, NY 11214","coor":{"lat":40.608497,"lng":-74.004697}},
{"name":"DUANE READE 14482","address":"1401 KINGS HWY, BROOKLYN, NY 11229","coor":{"lat":40.608542,"lng":-73.95878}},
{"name":"GOURMET PLAZA","address":"1663 1669 E 13TH ST, BROOKLYN, NY 11229","coor":{"lat":40.608568,"lng":-73.960125}},
{"name":"KINGS HWY PHARMACY AND","address":"1416 KINGS HWY, BROOKLYN, NY 11229","coor":{"lat":40.608588,"lng":-73.958671}},
{"name":"KINGS MEAT","address":"1673 E 16TH ST, BROOKLYN, NY 11229","coor":{"lat":40.608592,"lng":-73.957288}},
{"name":"SUPER DISCOUNT","address":"1420 KINGS HWY, BROOKLYN, NY 11229","coor":{"lat":40.608607,"lng":-73.958628}},
{"name":"GNC #9895","address":"1417 KINGS HWY, BROOKLYN, NY 11229","coor":{"lat":40.608645,"lng":-73.95854}},
{"name":"KINGS CONVIENCE","address":"1426 KINGS HWY, BROOKLYN, NY 11229","coor":{"lat":40.608658,"lng":-73.958509}},
{"name":"NEW MEI MINI MARKET","address":"1693 86TH ST, BROOKLYN, NY 11214","coor":{"lat":40.608705,"lng":-74.005039}},
{"name":"STAR PLUS COVE","address":"370 AVENUE, BROOKLYN, NY 11204","coor":{"lat":40.608727,"lng":-73.973854}},
{"name":"KINGS HIGHWAY PHARMACY","address":"1425 KINGS HWY, BROOKLYN, NY 11229","coor":{"lat":40.608737,"lng":-73.958326}},
{"name":"AVENUE P GROCERY","address":"382 AVENUE, BROOKLYN, NY 11204","coor":{"lat":40.608761,"lng":-73.973501}},
{"name":"ATHENAS MARKET","address":"1686 86TH ST, BROOKLYN, NY 11214","coor":{"lat":40.608799,"lng":-74.005193}},
{"name":"IDILIYA","address":"2027 AVENUE, BROOKLYN, NY 11229","coor":{"lat":40.608847,"lng":-73.952798}},
{"name":"KINGS GOURMET FOOD","address":"1508 KINGS HWY, BROOKLYN, NY 11229","coor":{"lat":40.608859,"lng":-73.958039}},
{"name":"FRUITS A PLENTY","address":"1507 KINGS HWY, BROOKLYN, NY 11229","coor":{"lat":40.608897,"lng":-73.957951}},
{"name":"RITE AID 10577","address":"8222 18TH AVE, BROOKLYN, NY 11214, ","coor":{"lat":40.608955,"lng":-74.000559}},
{"name":"THE BEST DELI EMANUEL G","address":"7816 20TH AVENUE, BROOKLYN, NY 11214","coor":{"lat":40.609031,"lng":-73.993651}},
{"name":"1521 KINGS NEWS & GROCE","address":"1521 KINGS HWY, BROOKLYN, NY 11229","coor":{"lat":40.609095,"lng":-73.957501}},
{"name":"BOB'S DISCOUNT FURNITUR","address":"2520 FLATBUSH AVE, BROOKLYN, NY 11234","coor":{"lat":40.609188,"lng":-73.922024}},
{"name":"ASSOCIATED","address":"480 AVENUE, BROOKLYN, NY 11223","coor":{"lat":40.609193,"lng":-73.969728}},
{"name":"AK CONVENIENCE II","address":"496 AVENUE, BROOKLYN, NY 11223","coor":{"lat":40.609249,"lng":-73.969188}},
{"name":"CVS/PHARMACY #10291","address":"1601 KINGS HIGHWAY, BROOKLYN, NY 11229","coor":{"lat":40.609356,"lng":-73.956908}},
{"name":"MAZORS BAKERY","address":"1785 MCDONALD AVE, BROOKLYN, NY 11230","coor":{"lat":40.609404,"lng":-73.973105}},
{"name":"KINGS VALLEY FRUIT","address":"1624 1626 KINGS HWY, BROOKLYN, NY 11229","coor":{"lat":40.609418,"lng":-73.956768}},
{"name":"MARINE PARK DELI GROCRY","address":"3509 AVENUE S, BROOKLYN, NY 11234","coor":{"lat":40.609442,"lng":-73.931824}},
{"name":"18TH AVE SMOKE SHOP DIS","address":"8120 18TH AVE, BROOKLYN, NY 11214, ","coor":{"lat":40.609497,"lng":-73.999926}},
{"name":"NY BROOKLYN BREAD","address":"8118 18TH AVE, BROOKLYN, NY 11214, ","coor":{"lat":40.609597,"lng":-73.999824}},
{"name":"TJ MAXX","address":"1630 E 15TH STREET, BROOKLYN, NY 11229","coor":{"lat":40.609619,"lng":-73.958454}},
{"name":"JACKIES DELI","address":"3522 AVENUE S, BROOKLYN, NY 11234","coor":{"lat":40.60963,"lng":-73.931547}},
{"name":"ROSNER GLATT KOSH BTCHR","address":"719 AVENUE, BROOKLYN, NY 11223","coor":{"lat":40.609645,"lng":-73.96551}},
{"name":"BIG BANANA","address":"1709 KINGS HWY, BROOKLYN, NY 11229","coor":{"lat":40.609759,"lng":-73.956019}},
{"name":"RITE AID PHARMACY 04867","address":"1720 KINGS HWY, BROOKLYN, NY 11229","coor":{"lat":40.609765,"lng":-73.956005}},
{"name":"JAF&SON CANDY STORE","address":"3601 AVENUE S, BROOKLYN, NY 11234","coor":{"lat":40.609873,"lng":-73.931172}},
{"name":"MY FAVORITE BAGEL","address":"3053 NOSTRAND AVE, BROOKLYN, NY 11229","coor":{"lat":40.609918,"lng":-73.943657}},
{"name":"NATURES EMPORIUM","address":"1612 E 16TH ST, BROOKLYN, NY 11229","coor":{"lat":40.609956,"lng":-73.957559}},
{"name":"7 ELEVEN STORE #35049A","address":"2474 FLATBUSH AVE, BROOKLYN, NY 11234","coor":{"lat":40.609962,"lng":-73.922856}},
{"name":"JMART","address":"8121 NEW UTRECH AVE, BROOKLYN, NY 11214, ","coor":{"lat":40.610025,"lng":-74.0016}},
{"name":"VEER KRUPAGROCERY","address":"1806 KINGS HWY, BROOKLYN, NY 11229","coor":{"lat":40.610032,"lng":-73.955381}},
{"name":"SUNWELL FRUIT","address":"7120 BAY PKWY, BROOKLYN, NY 11204","coor":{"lat":40.610064,"lng":-73.98536}},
{"name":"PURE HEALTH PHARMACY","address":"8014 18TH AVE, BROOKLYN, NY 11214, ","coor":{"lat":40.610121,"lng":-73.999289}},
{"name":"MIG-RX","address":"1811 KINGS HWY, BROOKLYN, NY 11229","coor":{"lat":40.610124,"lng":-73.95513}},
{"name":"17TH MINI MART","address":"8306 17TH AVENUE, BROOKLYN, NY 11214, ","coor":{"lat":40.610143,"lng":-74.003246}},
{"name":"SAM DELI 1","address":"1584 86TH ST, BROOKLYN, NY 11228","coor":{"lat":40.610176,"lng":-74.007476}},
{"name":"J&A DELI GROCERY","address":"32 AVENUE, BROOKLYN, NY 11204","coor":{"lat":40.61018,"lng":-73.9841}},
{"name":"DOMINO","address":"1824 KINGS HWY, BROOKLYN, NY 11229","coor":{"lat":40.610195,"lng":-73.954922}},
{"name":"CARE RX PHARMACY","address":"8011 18TH AVE, BROOKLYN, NY 11214, ","coor":{"lat":40.610236,"lng":-73.999172}},
{"name":"WEALTH OF HLTH NUTR CTR","address":"1309 AVENUE, BROOKLYN, NY 11229","coor":{"lat":40.61024,"lng":-73.960103}},
{"name":"FRANK & SAL PRIME MEATS","address":"8008 18TH AVE, BROOKLYN, NY 11214, ","coor":{"lat":40.610266,"lng":-73.999142}},
{"name":"AMINA DELI & GROCERY","address":"7108 BAY PKWY, BROOKLYN, NY 11204","coor":{"lat":40.610304,"lng":-73.985112}},
{"name":"KINGS CONEY P MOBIL","address":"1935 CONEY ISLAND AVE, BROOKLYN, NY 11230","coor":{"lat":40.610339,"lng":-73.962392}},
{"name":"KIEV BAKERY","address":"1627 E 18TH ST, BROOKLYN, NY 11229","coor":{"lat":40.610341,"lng":-73.955676}},
{"name":"UNITED GROCERY FOOD STO","address":"7522 20TH AVE, BROOKLYN, NY 11214","coor":{"lat":40.610341,"lng":-73.992287}},
{"name":"WHOLE FRUIT","address":"1901 KINGS HWY, BROOKLYN, NY 11229","coor":{"lat":40.610358,"lng":-73.954447}},
{"name":"FOOD UNIVERSE MARKET PL","address":"1910 KINGS HWY, BROOKLYN, NY 11229","coor":{"lat":40.610363,"lng":-73.954433}},
{"name":"ITALMEX CO","address":"8003 18TH AVE, BROOKLYN, NY 11214, ","coor":{"lat":40.610365,"lng":-73.999041}},
{"name":"DEAL 99 CENTS","address":"1912 KINGS HWY, BROOKLYN, NY 11229","coor":{"lat":40.610386,"lng":-73.954369}},
{"name":"DUANE READE 14201","address":"1417 AVENUE, BROOKLYN, NY 11229","coor":{"lat":40.61039,"lng":-73.95892}},
{"name":"AVENUE O GROCERY","address":"76 AVENUE, BROOKLYN, NY 11204","coor":{"lat":40.610391,"lng":-73.982317}},
{"name":"RNJ KINGS FOOD","address":"1914 KINGS HWY, BROOKLYN, NY 11229","coor":{"lat":40.610405,"lng":-73.954312}},
{"name":"THRIFTWAY PHARMACY","address":"1909 KINGS HWY, BROOKLYN, NY 11229","coor":{"lat":40.610434,"lng":-73.954231}},
{"name":"FOOD UNIVERSE MARKET PL","address":"97 AVENUE, BROOKLYN, NY 11204, ","coor":{"lat":40.610489,"lng":-73.981404}},
{"name":"SEVEN DAY CONVENIENCE","address":"1924 KINGS HWY, BROOKLYN, NY 11229","coor":{"lat":40.610498,"lng":-73.954048}},
{"name":"AAA PHARMACY AND MEDICA","address":"1926 KINGS HWY, BROOKLYN, NY 11229","coor":{"lat":40.610519,"lng":-73.953986}},
{"name":"DOLLAR TREE #5398","address":"1726 MCDONALD AVE, BROOKLYN, NY 11230","coor":{"lat":40.610521,"lng":-73.973316}},
{"name":"MEAT ON US","address":"1928 KINGS HWY, BROOKLYN, NY 11229","coor":{"lat":40.610541,"lng":-73.953924}},
{"name":"CANDY PLAZA","address":"5100 KINGS PLAZA MALL, BROOKLYN, NY 11234","coor":{"lat":40.610566,"lng":-73.921211}},
{"name":"KINGS CONVENIENCE NY","address":"1932 KINGS HWY, BROOKLYN, NY 11229","coor":{"lat":40.610569,"lng":-73.953843}},
{"name":"L & B FOOD DISTRIBUTORS","address":"122 AVENUE, BROOKLYN, NY 11204","coor":{"lat":40.61058,"lng":-73.980517}},
{"name":"AUSTIN MINI MART","address":"126 AVENUE, BROOKLYN, NY 11204","coor":{"lat":40.610591,"lng":-73.980409}},
{"name":"QUICK SUCCESS PHARMACY","address":"1610 AVENUE, BROOKLYN, NY 11229","coor":{"lat":40.61061,"lng":-73.95681}},
{"name":"FOOD DYNASTY","address":"1525 86TH ST, BROOKLYN, NY 11228","coor":{"lat":40.610688,"lng":-74.008321}},
{"name":"RITE AID PHARMACY 03847","address":"1532 34 86TH ST, BROOKLYN, NY 11228","coor":{"lat":40.610741,"lng":-74.008409}},
{"name":"NODE BAGELS & DELI","address":"2002 BAY RIDGE PKWY, BROOKLYN, NY 11204","coor":{"lat":40.610752,"lng":-73.991609}},
{"name":"FOOD UNIVERSE","address":"2424 FLATBUSH AVE, BROOKLYN, NY 11234","coor":{"lat":40.610857,"lng":-73.923863}},
{"name":"SUNFLOWER FOOD MARKET","address":"2409 65TH ST, BROOKLYN, NY 11204","coor":{"lat":40.610969,"lng":-73.976674}},
{"name":"WALGREENS #12855","address":"1511 86TH ST, BROOKLYN, NY 11228","coor":{"lat":40.611057,"lng":-74.008931}},
{"name":"SPOT ON 79TH THE","address":"7901 18TH AVE, BROOKLYN, NY 11214","coor":{"lat":40.611073,"lng":-73.998323}},
{"name":"86 OPTIMO CENTER","address":"1516 86TH ST, BROOKLYN, NY 11228","coor":{"lat":40.611125,"lng":-74.009044}},
{"name":"MK HAPPY DELI NY","address":"2978 QUENTIN RD, BROOKLYN, NY 11229","coor":{"lat":40.61117,"lng":-73.942153}},
{"name":"KINGS PLAZA NEWS","address":"5296 KINGS PLAZA, BROOKLYN, NY 11234","coor":{"lat":40.611181,"lng":-73.920263}},
{"name":"CVS PHARMACY #5847","address":"6831 BAY PKWY, BROOKLYN, NY 11204","coor":{"lat":40.611192,"lng":-73.984188}},
{"name":"ELIAMS DELI","address":"1891 CONEY ISLAND AVENUE, BROOKLYN, NY 11230","coor":{"lat":40.611202,"lng":-73.962554}},
{"name":"SYJ TRADING","address":"6914 BAY PKWY, BROOKLYN, NY 11204","coor":{"lat":40.611218,"lng":-73.984163}},
{"name":"5 CONTINENTS","address":"5354 KINGS PLZ, BROOKLYN, NY 11234","coor":{"lat":40.611225,"lng":-73.920195}},
{"name":"GODIVA CHOCOLATIER 527","address":"5378 KING PLAZA, BROOKLYN, NY 11234","coor":{"lat":40.611244,"lng":-73.920167}},
{"name":"BECKY GROCERY","address":"2383 65TH ST, BROOKLYN, NY 11204","coor":{"lat":40.611253,"lng":-73.977143}},
{"name":"W&S DAIRY GROCERY","address":"281 AVENUE, BROOKLYN, NY 11230","coor":{"lat":40.611337,"lng":-73.973755}},
{"name":"NEIGHBORHOOD BROTHERS D","address":"5401 AVENUE, BROOKLYN, NY 11234","coor":{"lat":40.611344,"lng":-73.920258}},
{"name":"SUNSHINE DELI&GROCERY","address":"8021 17TH AVE, BROOKLYN, NY 11214, ","coor":{"lat":40.611519,"lng":-74.001814}},
{"name":"SPEEDWAY #07836","address":"2400 FLATBUSH AVE, BROOKLYN, NY 11234","coor":{"lat":40.611567,"lng":-73.92467}},
{"name":"SAFIR BAKERY","address":"2724 AVENUE, BROOKLYN, NY 11229","coor":{"lat":40.611765,"lng":-73.946197}},
{"name":"POLISH DELI&FOODS","address":"7722 18TH AVE, BROOKLYN, NY 11214","coor":{"lat":40.611767,"lng":-73.997637}},
{"name":"NEW STAR CHS ITLN GRCY","address":"7305 20TH AVE, BROOKLYN, NY 11204","coor":{"lat":40.611842,"lng":-73.990721}},
{"name":"LIN'S INT GROCERY","address":"7718 18TH AVE, BROOKLYN, NY 11214","coor":{"lat":40.611849,"lng":-73.99755}},
{"name":"PK FARM","address":"2970 NOSTRAND AVE, BROOKLYN, NY 11229","coor":{"lat":40.61185,"lng":-73.944026}},
{"name":"NET COST MARKET","address":"2339 65TH ST, BROOKLYN, NY 11204","coor":{"lat":40.611893,"lng":-73.978191}},
{"name":"TRIBUZIO MEAT MARKET","address":"7714 18TH AVE, BROOKLYN, NY 11214","coor":{"lat":40.611927,"lng":-73.997468}},
{"name":"JO MART CHOCOLATES","address":"2917 AVENUE, BROOKLYN, NY 11229","coor":{"lat":40.61195,"lng":-73.94441}},
{"name":"EDIBLE ARRANGEMENTS","address":"1446 86TH ST, BROOKLYN, NY 11228","coor":{"lat":40.61203,"lng":-74.010538}},
{"name":"ILIRIA FOODS","address":"2323 65TH STREET, BROOKLYN, NY 11204","coor":{"lat":40.61208,"lng":-73.978497}},
{"name":"MG FRESH FRUITS","address":"2319 65TH ST, BROOKLYN, NY 11204","coor":{"lat":40.612157,"lng":-73.978621}},
{"name":"FAS CONVENIENCE","address":"2321 65TH STREET, BROOKLYN, NY 11204","coor":{"lat":40.612166,"lng":-73.978635}},
{"name":"BENSONHURST MARKETS","address":"7215 20TH AVE, BROOKLYN, NY 11204","coor":{"lat":40.612182,"lng":-73.990366}},
{"name":"DONGSHENG FOOD","address":"6719 BAY PARKWAY, BROOKLYN, NY 11204","coor":{"lat":40.612267,"lng":-73.983074}},
{"name":"HUA DU FOOD PROCESSING","address":"7619 18TH AVE, BROOKLYN, NY 11214","coor":{"lat":40.612341,"lng":-73.997041}},
{"name":"MONTE DE SION DELI","address":"7620 18TH AVE, BROOKLYN, NY 11214","coor":{"lat":40.612356,"lng":-73.997026}},
{"name":"CARDAK INTL FOOD","address":"2301 65TH ST, BROOKLYN, NY 11204","coor":{"lat":40.612388,"lng":-73.978996}},
{"name":"CONEY SUPER","address":"1839 CONEY ISLAND AVE, BROOKLYN, NY 11230","coor":{"lat":40.612414,"lng":-73.96278}},
{"name":"MAUERS SUPER DELI","address":"3103 QUENTIN RD, BROOKLYN, NY 11234","coor":{"lat":40.612416,"lng":-73.940223}},
{"name":"J&J GROCERY","address":"1840 CONEY ISLAND AVE, BROOKLYN, NY 11230","coor":{"lat":40.612422,"lng":-73.962894}},
{"name":"FAVORITE CHOICE GROCERY","address":"8401 15TH AVE, BROOKLYN, NY 11228, ","coor":{"lat":40.612476,"lng":-74.008408}},
{"name":"CTRL BAY PKY FOOD","address":"6710 BAY PKWY, BROOKLYN, NY 11204","coor":{"lat":40.612489,"lng":-73.982837}},
{"name":"999 BAGELS","address":"1410 86TH ST, BROOKLYN, NY 11228","coor":{"lat":40.612549,"lng":-74.011401}},
{"name":"ASIM CONVENIENCE CORP","address":"1404 86TH ST, BROOKLYN, NY 11228","coor":{"lat":40.612627,"lng":-74.01153}},
{"name":"76 CUCCIS DELI","address":"7602 18TH AVENUE, BROOKLYN, NY 11214","coor":{"lat":40.612677,"lng":-73.996707}},
{"name":"NOT ONLY BAGELS","address":"7821 17TH AVE, BROOKLYN, NY 11214","coor":{"lat":40.612694,"lng":-74.000597}},
{"name":"SPELT DOUGH","address":"2359 FLATBUSH AVENUE, BROOKLYN, NY 11234","coor":{"lat":40.612718,"lng":-73.925552}},
{"name":"FUSION PHARMACY","address":"2276 65TH ST, BROOKLYN, NY 11204","coor":{"lat":40.612726,"lng":-73.979557}},
{"name":"KARZINKA","address":"6629 BAY PARKWAY, BROOKLYN, NY 11204","coor":{"lat":40.612764,"lng":-73.982547}},
{"name":"LUCKY SHOP 168","address":"7815 17TH AVE, BROOKLYN, NY 11214","coor":{"lat":40.612817,"lng":-74.000477}},
{"name":"ORGANIC CIRCLE","address":"1415 AVENUE, BROOKLYN, NY 11230","coor":{"lat":40.61288,"lng":-73.9596}},
{"name":"QQ MINI MARKET","address":"7110 20TH AVE, BROOKLYN, NY 11204","coor":{"lat":40.612881,"lng":-73.989645}},
{"name":"GREAT GREEN SUPERMARKET","address":"6614 BAY PKWY, BROOKLYN, NY 11204","coor":{"lat":40.612941,"lng":-73.982362}},
{"name":"FLATBUSH SUPERMARKET","address":"1823 CONEY ISLAND AVE, BROOKLYN, NY 11230","coor":{"lat":40.613027,"lng":-73.962896}},
{"name":"EK EXPRESS WAY DELI","address":"7514 18TH AVE, BROOKLYN, NY 11214","coor":{"lat":40.613045,"lng":-73.996336}},
{"name":"H&T ORIENTAL GROCERY","address":"6617 BAY PKWY, BROOKLYN, NY 11204","coor":{"lat":40.613046,"lng":-73.982253}},
{"name":"FAMILY FARM STORE","address":"1499 E 15TH ST, BROOKLYN, NY 11230","coor":{"lat":40.613052,"lng":-73.959105}},
{"name":"STAR DELI&GROCERY","address":"6602 BAY PKWY, BROOKLYN, NY 11204","coor":{"lat":40.613095,"lng":-73.982202}},
{"name":"ASZ DELI & GROCERY","address":"6607 BAY PARKWAY, BROOKLYN, NY 11204","coor":{"lat":40.613108,"lng":-73.982189}},
{"name":"US SANDWICH","address":"1313 W 6TH ST, BROOKLYN, NY 11204","coor":{"lat":40.613161,"lng":-73.98065}},
{"name":"HAVA NAGILA R","address":"1724 AVENUE, BROOKLYN, NY 11230","coor":{"lat":40.613245,"lng":-73.956389}},
{"name":"CAMPOS DELI GROCERY","address":"7020 20TH AVE, BROOKLYN, NY 11204","coor":{"lat":40.613256,"lng":-73.989256}},
{"name":"24 HRS MINIMAKT","address":"7817 NEW UTRECHT AVE, BROOKLYN, NY 11214","coor":{"lat":40.613268,"lng":-74.000668}},
{"name":"RITE AID PHARMACY 04613","address":"2324 FLATBUSH AVE, BROOKLYN, NY 11234","coor":{"lat":40.613293,"lng":-73.926638}},
{"name":"OCEAN FRUIT & SUPERMRKT","address":"1986 OCEAN AVE, BROOKLYN, NY 11230","coor":{"lat":40.61335,"lng":-73.954056}},
{"name":"LUCKY CORNER FARM & FLO","address":"1902 AVENUE, BROOKLYN, NY 11230","coor":{"lat":40.613393,"lng":-73.955116}},
{"name":"EL CHAPIN","address":"7710 17TH AVE, BROOKLYN, NY 11214","coor":{"lat":40.613436,"lng":-73.999853}},
{"name":"ACE MARKET NY","address":"6511 BAY PARKWAY, BROOKLYN, NY 11204","coor":{"lat":40.613522,"lng":-73.98177}},
{"name":"B & W DELI & SMOKE SHOP","address":"7423 18TH AVE, BROOKLYN, NY 11204","coor":{"lat":40.613532,"lng":-73.995841}},
{"name":"18 FUEL","address":"1781 BAY RIDGE PKWY, BROOKLYN, NY 11204","coor":{"lat":40.613542,"lng":-73.996231}},
{"name":"FALAFELPITTA GLTN-FREE","address":"2200 MILL AVE, BROOKLYN, NY 11234","coor":{"lat":40.613565,"lng":-73.91174}},
{"name":"RX WAREHOUSE PHARMACY","address":"7724 NEW UTRECHT AVE, BROOKLYN, NY 11214","coor":{"lat":40.613665,"lng":-74.000553}},
{"name":"A & C MINI MARKET","address":"7701 17TH AVE, BROOKLYN, NY 11214","coor":{"lat":40.613686,"lng":-73.999594}},
{"name":"WALGREENS #13752","address":"2325 FLATBUSH AVE, BROOKLYN, NY 11234","coor":{"lat":40.613704,"lng":-73.926946}},
{"name":"SHADAI DELI & GROCERY","address":"7709 NEW UTRECHT AVE, BROOKLYN, NY 11214","coor":{"lat":40.613778,"lng":-74.000521}},
{"name":"6923 THE LUCKY STORE","address":"6923 20TH AVENUE, BROOKLYN, NY 11204","coor":{"lat":40.613782,"lng":-73.988708}},
{"name":"ONE STOP SHOP","address":"1601 MCDONALD AVENUE, BROOKLYN, NY 11230","coor":{"lat":40.613805,"lng":-73.973887}},
{"name":"MET FOODS","address":"3404 QUENTIN RD, BROOKLYN, NY 11234","coor":{"lat":40.61383,"lng":-73.938034}},
{"name":"LU'S SISTER GROCERY","address":"7401 18TH AVENUE, BROOKLYN, NY 11204","coor":{"lat":40.6139,"lng":-73.995468}},
{"name":"NEW PM GROCERY","address":"7703 NEW UTRECHT AVE, BROOKLYN, NY 11214","coor":{"lat":40.613901,"lng":-74.000485}},
{"name":"B&R FOODS","address":"7904 16TH AVE, BROOKLYN, NY 11214","coor":{"lat":40.61394,"lng":-74.003343}},
{"name":"AKA CONVENIENCE STORE","address":"9811 4TH AVENUE, BROOKLYN, NY 11209, ","coor":{"lat":40.613947,"lng":-74.032685}},
{"name":"QUENTIN DAIRY DELI","address":"3420 QUENTIN RD, BROOKLYN, NY 11234","coor":{"lat":40.61401,"lng":-73.937771}},
{"name":"SUPER 77 MARKET","address":"7704 NEW UTRECHT AVE, BROOKLYN, NY 11214","coor":{"lat":40.614102,"lng":-74.000428}},
{"name":"3 BROS DELI & GROCERY","address":"6409 BAY PARKWAY, BROOKLYN, NY 11204","coor":{"lat":40.614142,"lng":-73.981126}},
{"name":"LIN'S DELI & GROCERY","address":"7619 NEW UTRECHT AVE, BROOKLYN, NY 11214","coor":{"lat":40.61427,"lng":-74.000381}},
{"name":"SINAI DELI & GROCERY","address":"7314 18TH AVENUE, BROOKLYN, NY 11204","coor":{"lat":40.614271,"lng":-73.995093}},
{"name":"SUGAR RUSH PLUS","address":"3509 QUENTIN RD, BROOKLYN, NY 11234","coor":{"lat":40.614296,"lng":-73.93734}},
{"name":"CATRACHO DELI GROCERY I","address":"6823 20TH AVE, BROOKLYN, NY 11204","coor":{"lat":40.614319,"lng":-73.988151}},
{"name":"QUICK STOP","address":"6824 20TH AVE, BROOKLYN, NY 11204","coor":{"lat":40.614324,"lng":-73.988146}},
{"name":"SAL&JERRY BAKERY","address":"6817 20TH AVE, BROOKLYN, NY 11204","coor":{"lat":40.614416,"lng":-73.988054}},
{"name":"MIRA POLISH DELI","address":"7607 NEW UTRECHT AVE, BROOKLYN, NY 11214","coor":{"lat":40.614539,"lng":-74.000307}},
{"name":"KOLHELLY BAKERY","address":"6318 BAY PKWY, BROOKLYN, NY 11204","coor":{"lat":40.614609,"lng":-73.980637}},
{"name":"GULF FOOD MART","address":"2285 FLATBUSH AVE, BROOKLYN, NY 11234","coor":{"lat":40.614625,"lng":-73.928039}},
{"name":"WANG DA DOLLAR STORE","address":"7216 18TH AVE, BROOKLYN, NY 11204","coor":{"lat":40.614808,"lng":-73.99455}},
{"name":"QUEEN AA GROCERY","address":"7214 18TH AVE, BROOKLYN, NY 11204","coor":{"lat":40.614834,"lng":-73.994525}},
{"name":"20TH AVE MINI MARKET","address":"6722 20TH AVE, BROOKLYN, NY 11204","coor":{"lat":40.614891,"lng":-73.987567}},
{"name":"SAN ATANACIO DELI-GROCE","address":"6304 BAY PKWY, BROOKLYN, NY 11204","coor":{"lat":40.614892,"lng":-73.980343}},
{"name":"HOSSAIN DELI&GROCERY","address":"9801 3RD AVE, BROOKLYN, NY 11209, ","coor":{"lat":40.614944,"lng":-74.034544}},
{"name":"QUEEN ANN RAVIOLI","address":"7205 7207 18TH AVE, BROOKLYN, NY 11204","coor":{"lat":40.614948,"lng":-73.994409}},
{"name":"THIRD AVE MINI MARKET","address":"9721 3RD AVE, BROOKLYN, NY 11209, ","coor":{"lat":40.615104,"lng":-74.034479}},
{"name":"THE ORIGINAL BROOKLYN B","address":"2835 NOSTRAND AVE, BROOKLYN, NY 11229","coor":{"lat":40.615119,"lng":-73.944637}},
{"name":"ORIGINAL BROOKLYN BAGEL","address":"2835 NOSTRAND AVE, BROOKLYN, NY 11229","coor":{"lat":40.615119,"lng":-73.944637}},
{"name":"EL TIKAL DISCOUNT STORE","address":"7519 NEW UTRECHT AVE, BROOKLYN, NY 11214","coor":{"lat":40.615133,"lng":-74.000147}},
{"name":"A&B FOOD","address":"7402 17TH AVE, BROOKLYN, NY 11204","coor":{"lat":40.615337,"lng":-73.997842}},
{"name":"CORTEZ MEXICAN AMERICAN","address":"6623 20TH AVE, BROOKLYN, NY 11204","coor":{"lat":40.615445,"lng":-73.986979}},
{"name":"LIONI LATTICINI","address":"7819 15TH AVE, BROOKLYN, NY 11228","coor":{"lat":40.615514,"lng":-74.005254}},
{"name":"CVS 02141","address":"2917 2931 KINGS HWY, BROOKLYN, NY 11229","coor":{"lat":40.615621,"lng":-73.945613}},
{"name":"KINGS MILL BP","address":"6201 AVENUE, BROOKLYN, NY 11234","coor":{"lat":40.615633,"lng":-73.913567}},
{"name":"MARK DELI&GROCERY","address":"9512 4TH AVE, BROOKLYN, NY 11209, ","coor":{"lat":40.615682,"lng":-74.031273}},
{"name":"7-ELEVEN STORE #36802A","address":"1523 AVE, BROOKLYN, NY 11230","coor":{"lat":40.615697,"lng":-73.958833}},
{"name":"MOUNTAIN FRUIT","address":"1523 AVENUE, BROOKLYN, NY 11230","coor":{"lat":40.615697,"lng":-73.958833}},
{"name":"BROOKLYN BEER","address":"9516 4TH AVENUE, BROOKLYN, NY 11209, ","coor":{"lat":40.615699,"lng":-74.031262}},
{"name":"GREEN GARDEN 1 DELI","address":"2801 NOSTRAND AVE, BROOKLYN, NY 11229","coor":{"lat":40.615724,"lng":-73.944754}},
{"name":"RITE AIDE 10585","address":"2064 MILL AVE, BROOKLYN, NY 11234","coor":{"lat":40.615727,"lng":-73.914232}},
{"name":"YNG HOLDINGS","address":"913 RODER AVE, BROOKLYN, NY 11230, ","coor":{"lat":40.615764,"lng":-73.964867}},
{"name":"BIMBO BAKERIES USA","address":"2220 FLATBUSH AVE, BROOKLYN, NY 11234","coor":{"lat":40.615781,"lng":-73.929331}},
{"name":"MEATS SUPREME","address":"6214 AVENUE, BROOKLYN, NY 11234","coor":{"lat":40.615798,"lng":-73.913315}},
{"name":"LIONI FRSH MZZ&ITAL HER","address":"7803 15TH AVE, BROOKLYN, NY 11228","coor":{"lat":40.615803,"lng":-74.004946}},
{"name":"PARADISE FRUIT&VGTBL","address":"1622 BAYRIDGE PKWY, BROOKLYN, NY 11204","coor":{"lat":40.615843,"lng":-74.000048}},
{"name":"HONG KEY MARKET INC","address":"7022 18TH AVE, BROOKLYN, NY 11204","coor":{"lat":40.615843,"lng":-73.993512}},
{"name":"ROMEO FOODS","address":"7801 15TH AVE, BROOKLYN, NY 11228","coor":{"lat":40.615848,"lng":-74.004899}},
{"name":"PASTOSA RAVIOLI","address":"7425 NEW UTRECHT AVE, BROOKLYN, NY 11204","coor":{"lat":40.615912,"lng":-73.99994}},
{"name":"PREMIUM DELI","address":"8220 13TH AVE, BROOKLYN, NY 11228, ","coor":{"lat":40.615923,"lng":-74.01199}},
{"name":"STOP & SAVE DELI","address":"7015 18TH AVE, BROOKLYN, NY 11204","coor":{"lat":40.615925,"lng":-73.993429}},
{"name":"LATE NIGHT STOP 1 DELI","address":"9429 5TH AVE, BROOKLYN, NY 11209, ","coor":{"lat":40.615937,"lng":-74.030978}},
{"name":"ALWAYS SAVE","address":"7013 18TH AVE, BROOKLYN, NY 11204","coor":{"lat":40.61596,"lng":-73.993394}},
{"name":"TASTY PASTRY SHOPPE","address":"8218 13TH AVE, BROOKLYN, NY 11228, ","coor":{"lat":40.615965,"lng":-74.011946}},
{"name":"E & M DELI MINI MART","address":"1617 BAY RIDGE, BROOKLYN, NY 11204","coor":{"lat":40.615982,"lng":-74.000271}},
{"name":"NEW GROUP MARKET","address":"7012 18TH AVE, BROOKLYN, NY 11204","coor":{"lat":40.615997,"lng":-73.993357}},
{"name":"MAHBUB DELI AND MARKET","address":"6523 20TH AVE, BROOKLYN, NY 11204","coor":{"lat":40.616008,"lng":-73.986397}},
{"name":"CARE PLUS PHARMACY","address":"7010 18TH AVE, BROOKLYN, NY 11204","coor":{"lat":40.616035,"lng":-73.993318}},
{"name":"CHUN TRADING","address":"7005 18TH AVE, BROOKLYN, NY 11204","coor":{"lat":40.616085,"lng":-73.993268}},
{"name":"CRISTOFORD FISH MARKET","address":"7002 18TH AVE, BROOKLYN, NY 11204","coor":{"lat":40.616157,"lng":-73.993196}},
{"name":"LUCKY FAMILY DELI AND G","address":"2206A FLATBUSH AVE, BROOKLYN, NY 11234","coor":{"lat":40.616189,"lng":-73.92978}},
{"name":"A&J MINI MARKET","address":"6924 18TH AVE, BROOKLYN, NY 11204","coor":{"lat":40.616358,"lng":-73.992991}},
{"name":"MET FRESH SUPERMARKET","address":"9606 3RD AVE, BROOKLYN, NY 11209, ","coor":{"lat":40.616359,"lng":-74.033967}},
{"name":"AK TWO","address":"1400 E 4TH ST, BROOKLYN, NY 11230","coor":{"lat":40.616434,"lng":-73.971344}},
{"name":"KINGS HIGHWAY MOBIL","address":"2773 NOSTRAND AVE, BROOKLYN, NY 11210","coor":{"lat":40.616569,"lng":-73.944945}},
{"name":"SINGH GROCERY STORE","address":"211 AVENUE, BROOKLYN, NY 11230","coor":{"lat":40.61657,"lng":-73.97294}},
{"name":"MOON CONVENIENCE & DELI","address":"7402 NEW UTRECHT AVE, BROOKLYN, NY 11204","coor":{"lat":40.616591,"lng":-73.999718}},
{"name":"LABORBOX","address":"579 92ND STREET, BROOKLYN, NY 11209","coor":{"lat":40.616613,"lng":-74.026848}},
{"name":"CHOCOLATE FIX THE","address":"1391 E 4TH ST, BROOKLYN, NY 11230","coor":{"lat":40.616622,"lng":-73.97138}},
{"name":"VINNIES MEATS","address":"9517 3RD AVE, BROOKLYN, NY 11209, ","coor":{"lat":40.616693,"lng":-74.03383}},
{"name":"ON THE WAY CONVENIENCE","address":"569 92ND ST, BROOKLYN, NY 11209","coor":{"lat":40.616698,"lng":-74.027013}},
{"name":"7-ELEVEN FD STR 27454C","address":"2247 UTICA AVE, BROOKLYN, NY 11234","coor":{"lat":40.616858,"lng":-73.92666}},
{"name":"LA FLOR DEL PODER","address":"1662 CONEY ISLAND AVE, BROOKLYN, NY 11230","coor":{"lat":40.616886,"lng":-73.963731}},
{"name":"MILL BASIN STOP","address":"6122 AVENUE, BROOKLYN, NY 11234","coor":{"lat":40.616904,"lng":-73.915954}},
{"name":"73 GASOLINE","address":"7310 NEW UTRECHT AVE, BROOKLYN, NY 11204","coor":{"lat":40.616907,"lng":-73.999629}},
{"name":"OK FISH MARKET","address":"6824 18TH AVE, BROOKLYN, NY 11204","coor":{"lat":40.616929,"lng":-73.992405}},
{"name":"5604 GROCERY & DELI","address":"5604 AVENUE, BROOKLYN, NY 11234","coor":{"lat":40.616973,"lng":-73.92081}},
{"name":"MELDI USA","address":"6424 20TH AVE, BROOKLYN, NY 11204","coor":{"lat":40.616974,"lng":-73.98539}},
{"name":"AR CONVENIENCE STORE","address":"9257 4TH AVE, BROOKLYN, NY 11209, ","coor":{"lat":40.616977,"lng":-74.030731}},
{"name":"PETE ROSITO FRUIT","address":"1787 BAY RIDGE AVE, BROOKLYN, NY 11204","coor":{"lat":40.617,"lng":-73.992792}},
{"name":"RITE AID PHARMACY 03766","address":"5901 BAY PKWY, BROOKLYN, NY 11204","coor":{"lat":40.617006,"lng":-73.97814}},
{"name":"BOVA MEAT MARKET","address":"8020 13TH AVE, BROOKLYN, NY 11228, ","coor":{"lat":40.61704,"lng":-74.010836}},
{"name":"MAMAS NOODLE HOUSE","address":"1782 BAY RIDGE AVENUE, BROOKLYN, NY 11204","coor":{"lat":40.617058,"lng":-73.992887}},
{"name":"NARGIS DELI & GROCERY","address":"2917 AVENUE N, BROOKLYN, NY 11210","coor":{"lat":40.61717,"lng":-73.945441}},
{"name":"MADINA MARKET SQUARE","address":"6323 20TH AVE, BROOKLYN, NY 11204","coor":{"lat":40.617185,"lng":-73.985167}},
{"name":"ELAINES AVE M DELI","address":"2924 AVENUE, BROOKLYN, NY 11210","coor":{"lat":40.617193,"lng":-73.945255}},
{"name":"MEISNERS TAKE HOME FOOD","address":"2924 AVENUE, BROOKLYN, NY 11210","coor":{"lat":40.617193,"lng":-73.945255}},
{"name":"E SUPERETTE","address":"9053 FT HAMILTON PKWY, BROOKLYN, NY 11209, ","coor":{"lat":40.617206,"lng":-74.027266}},
{"name":"RADFAN","address":"6317 20TH AVE, BROOKLYN, NY 11204","coor":{"lat":40.617274,"lng":-73.98507}},
{"name":"NATIONAL WHOLESALE LIQD","address":"2201 59TH ST, BROOKLYN, NY 11204","coor":{"lat":40.617285,"lng":-73.977849}},
{"name":"JIN CHENG DA","address":"6802 04 18TH AVE, BROOKLYN, NY 11204","coor":{"lat":40.617307,"lng":-73.992027}},
{"name":"METROPOLITAN CITY FOODS","address":"9310 4TH AVE, BROOKLYN, NY 11209, ","coor":{"lat":40.617364,"lng":-74.030576}},
{"name":"GELSTON DELI&GRCY","address":"530 92ND ST, BROOKLYN, NY 11209","coor":{"lat":40.617374,"lng":-74.028266}},
{"name":"15TH AVENUE MINI MARKET","address":"7501 15TH AVE, BROOKLYN, NY 11228","coor":{"lat":40.617534,"lng":-74.003144}},
{"name":"WALGREENS #12732","address":"9408 3RD AVE, BROOKLYN, NY 11209, ","coor":{"lat":40.617589,"lng":-74.033458}},
{"name":"CHAP A NOSH OF BROOKLYN","address":"1424 ELM AVE, BROOKLYN, NY 11230","coor":{"lat":40.61767,"lng":-73.960386}},
{"name":"13TH AVE MINI MART","address":"7912 13TH AVE, BROOKLYN, NY 11228","coor":{"lat":40.617713,"lng":-74.010139}},
{"name":"JUS BY JULIE","address":"1212 AVE, BROOKLYN, NY 11230","coor":{"lat":40.61774,"lng":-73.96228}},
{"name":"AVENUE J FISH CENTER","address":"1215 AVENUE, BROOKLYN, NY 11230","coor":{"lat":40.61775,"lng":-73.96222}},
{"name":"KEY FOOD","address":"6620 AVENUE, BROOKLYN, NY 11234","coor":{"lat":40.617796,"lng":-73.910269}},
{"name":"AARON","address":"6705 18TH AVE, BROOKLYN, NY 11204","coor":{"lat":40.61782,"lng":-73.991505}},
{"name":"SUPER MARKET OF AVE N","address":"3524 FLATLANDS AVE, BROOKLYN, NY 11234","coor":{"lat":40.61784,"lng":-73.940594}},
{"name":"SAVE QUICK STORES","address":"1318 AVENUE, BROOKLYN, NY 11230","coor":{"lat":40.61786,"lng":-73.96123}},
{"name":"MENCHYS ON J","address":"1412 AVENUE, BROOKLYN, NY 11230","coor":{"lat":40.617936,"lng":-73.960707}},
{"name":"ORGANIC GIRL ON 3RD AVE","address":"9401 3RD AVE, BROOKLYN, NY 11209, ","coor":{"lat":40.617941,"lng":-74.033309}},
{"name":"C TOWN-LA BELLA MKTPLC","address":"7907 13TH AVE, BROOKLYN, NY 11228","coor":{"lat":40.618005,"lng":-74.009839}},
{"name":"YOU JIA GROCERY","address":"6209 20TH AVE, BROOKLYN, NY 11204","coor":{"lat":40.618045,"lng":-73.984268}},
{"name":"WALGREENS #11555","address":"6628 18TH AVE, BROOKLYN, NY 11204","coor":{"lat":40.618064,"lng":-73.991264}},
{"name":"A ONE GROCERY & DELI","address":"9126 5TH AVENUE, BROOKLYN, NY 11209, ","coor":{"lat":40.618082,"lng":-74.029149}},
{"name":"JIN CHANG LAI","address":"6619 18TH AVENUE, BROOKLYN, NY 11204","coor":{"lat":40.618129,"lng":-73.991196}},
{"name":"MEAL TICKET FOODS","address":"7402 15TH AVE, BROOKLYN, NY 11228","coor":{"lat":40.618143,"lng":-74.002501}},
{"name":"LIGNO GROCERY","address":"6617 18TH AVE, BROOKLYN, NY 11204","coor":{"lat":40.618157,"lng":-73.991168}},
{"name":"7-ELEVEN STR #33704A","address":"1619 AVENUE, BROOKLYN, NY 11230","coor":{"lat":40.61818,"lng":-73.9584}},
{"name":"B&A PORK STORE","address":"7818 13TH AVE, BROOKLYN, NY 11228","coor":{"lat":40.618206,"lng":-74.009634}},
{"name":"C TOWN","address":"6614 18TH AVE, BROOKLYN, NY 11204","coor":{"lat":40.618214,"lng":-73.991109}},
{"name":"LEADING FOODS","address":"1310 E 18TH ST, BROOKLYN, NY 11230","coor":{"lat":40.618233,"lng":-73.957159}},